# {"date": "2023.07.23 18:23:05", "cwd": "/home/eyulaeva/facilities-mapping/facilities", "script": "scripts/ixs-build.py", "config_file": "/home/eyulaeva/facilities-mapping/facilities/config.ini", "hostname": "athyra"}
{"pdb_fac_id": 1, "name": "Equinix DC1-DC15, DC21 - Ashburn", "country": "US", "state": "VA", "city": "Ashburn", "zipcode": "20147-6205", "address": "21715 Filigree CtBuilding F", "latitude": 39.016363, "longitude": -77.459023, "clli": "ASBNVA", "pdb_org_id": 2, "alternatenames": [], "sources": ["pdb"], "geo_id": 4744870, "num_ixs": 6, "fac_id": 1}
{"pdb_fac_id": 2, "name": "Digital Realty SFO (200 Paul)", "country": "US", "state": "CA", "city": "San Francisco", "zipcode": "94110", "address": "200 Paul Ave", "latitude": 37.723407, "longitude": -122.397923, "clli": "SNFCCA", "pdb_org_id": 8592, "alternatenames": [], "sources": ["pdb"], "geo_id": 5391959, "num_ixs": 2, "fac_id": 2}
{"pdb_fac_id": 4, "name": "Equinix DA1 - Dallas", "country": "US", "state": "TX", "city": "Dallas", "zipcode": "75207-3137", "address": "1950 N Stemmons FwySte 1034", "latitude": 32.800955, "longitude": -96.81955, "clli": "DLLSTX", "pdb_org_id": 2, "alternatenames": [], "sources": ["pdb"], "geo_id": 4684888, "num_ixs": 3, "fac_id": 3}
{"pdb_fac_id": 5, "name": "Equinix SV8 - Silicon Valley, Palo Alto", "country": "US", "state": "CA", "city": "Palo Alto", "zipcode": "94301-1704", "address": "529 Bryant St", "latitude": 37.445896, "longitude": -122.160775, "clli": "PLALCA", "pdb_org_id": 2, "alternatenames": [], "sources": ["pdb"], "geo_id": 5380748, "num_ixs": 4, "fac_id": 4}
{"pdb_fac_id": 6, "name": "Equinix SV1/SV5/SV10 - Silicon Valley, San Jose", "country": "US", "state": "CA", "city": "San Jose", "zipcode": "95119-1242", "address": "11 Great Oaks Blvd", "latitude": 37.241767, "longitude": -121.782967, "clli": "SNJSCA", "pdb_org_id": 2, "alternatenames": [], "sources": ["pdb"], "geo_id": 5392171, "num_ixs": 7, "fac_id": 5}
{"pdb_fac_id": 7, "name": "Equinix CH1/CH2/CH4 - Chicago", "country": "US", "state": "IL", "city": "Chicago", "zipcode": "60616-1568", "address": "350 E Cermak Rd5th Floor / 6th Floor / 8th Floor", "latitude": 41.85365, "longitude": -87.618342, "clli": "CHCGIL", "pdb_org_id": 2, "alternatenames": [], "sources": ["pdb"], "geo_id": 4887398, "num_ixs": 5, "fac_id": 6}
{"pdb_fac_id": 8, "name": "Equinix LA1 - Los Angeles", "country": "US", "state": "CA", "city": "Los Angeles", "zipcode": "90017-3859", "address": "600 W 7th St6th Floor", "latitude": 34.047501, "longitude": -118.2573, "clli": "LSANCA", "pdb_org_id": 2, "alternatenames": [], "sources": ["pdb"], "geo_id": 5368361, "num_ixs": 5, "fac_id": 7}
{"pdb_fac_id": 9, "name": "Equinix NY1 - New York, Newark", "country": "US", "state": "NJ", "city": "Newark", "zipcode": "07102-2834", "address": "165 Halsey St8th Floor", "latitude": 40.736844, "longitude": -74.173402, "clli": "NWRKNJ", "pdb_org_id": 2, "alternatenames": [], "sources": ["pdb"], "geo_id": 5101798, "num_ixs": 2, "fac_id": 8}
{"pdb_fac_id": 10, "name": "Digital Realty NYC (60 Hudson)", "country": "US", "state": "NY", "city": "New York", "zipcode": "10013-3315", "address": "60 Hudson St", "latitude": 40.717723, "longitude": -74.008299, "clli": "NYCMNY", "pdb_org_id": 8592, "alternatenames": [], "sources": ["pdb"], "geo_id": 5128581, "num_ixs": 7, "fac_id": 9}
{"pdb_fac_id": 11, "name": "Equinix AT2/AT3 - Atlanta", "country": "US", "state": "GA", "city": "Atlanta", "zipcode": "30303-2885", "address": "56 Marietta St NW5th Floor", "latitude": 33.755456, "longitude": -84.39153, "clli": "ATLNGA", "pdb_org_id": 2, "alternatenames": [], "sources": ["pdb"], "geo_id": 4180439, "num_ixs": 2, "fac_id": 10}
{"pdb_fac_id": 12, "name": "Equinix TR1 - Toronto", "country": "CA", "state": "ON", "city": "Toronto", "zipcode": "M5J 2N1", "address": "151 Front St", "latitude": 43.644672, "longitude": -79.384128, "clli": "TOROON", "pdb_org_id": 2, "alternatenames": [], "sources": ["pdb"], "geo_id": 6167865, "num_ixs": 5, "fac_id": 11}
{"pdb_fac_id": 15, "name": "Equinix MI1 - Miami, NOTA", "country": "US", "state": "FL", "city": "Miami", "zipcode": "33132-1709", "address": "50 NE 9th St", "latitude": 25.782648, "longitude": -80.193157, "clli": "MIAUFL", "pdb_org_id": 2, "alternatenames": [], "sources": ["pdb"], "geo_id": 4164138, "num_ixs": 7, "fac_id": 13}
{"pdb_fac_id": 16, "name": "Digital Realty NYC (111 8th Ave)", "country": "US", "state": "New York", "city": "New York", "zipcode": "10011", "address": "111 8th Ave", "latitude": 40.741469, "longitude": -74.003387, "clli": "NYCMNY", "pdb_org_id": 8592, "alternatenames": [], "sources": ["pdb"], "geo_id": 5128581, "num_ixs": 4, "fac_id": 14}
{"pdb_fac_id": 18, "name": "NIKHEF Amsterdam", "country": "NL", "state": "NH", "city": "Amsterdam", "zipcode": "1098 XG", "address": "Science Park 105", "latitude": 52.356394, "longitude": 4.950837, "clli": "AMSTNL", "pdb_org_id": 31, "alternatenames": [], "sources": ["pdb"], "geo_id": 2759794, "num_ixs": 19, "fac_id": 15}
{"pdb_fac_id": 19, "name": "CoreSite - Los Angeles (LA1) One Wilshire", "country": "US", "state": "CA", "city": "Los Angeles", "zipcode": "90017", "address": "624 S. Grand Ave.Suite 110", "latitude": 34.047942, "longitude": -118.255564, "clli": "LSANCARC", "pdb_org_id": 34, "alternatenames": [], "sources": ["pdb"], "geo_id": 5368361, "num_ixs": 5, "fac_id": 16}
{"pdb_fac_id": 20, "name": "CoreSite - San Jose (SV1)", "country": "US", "state": "CA", "city": "San Jose", "zipcode": "95113", "address": "55 S. Market StreetSuite 440", "latitude": 37.334147, "longitude": -121.891649, "clli": "SNJSCAJN", "pdb_org_id": 34, "alternatenames": [], "sources": ["pdb"], "geo_id": 5392171, "num_ixs": 2, "fac_id": 17}
{"pdb_fac_id": 22, "name": "JMA NAC Los Angeles", "country": "US", "state": "CA", "city": "Los Angeles", "zipcode": "90014", "address": "530 West 6th Street", "latitude": 34.048428, "longitude": -118.255186, "clli": "LSANCA", "pdb_org_id": 41, "alternatenames": [], "sources": ["pdb"], "geo_id": 5368361, "num_ixs": 1, "fac_id": 1278}
{"pdb_fac_id": 23, "name": "Digital Realty SFO (365 Main)", "country": "US", "state": "CA", "city": "San Francisco", "zipcode": "94105", "address": "365 Main Street", "latitude": 37.788669, "longitude": -122.390509, "clli": "SNFCCA", "pdb_org_id": 8592, "alternatenames": [], "sources": ["pdb"], "geo_id": 5391959, "num_ixs": 2, "fac_id": 18}
{"pdb_fac_id": 34, "name": "Telehouse - London (Docklands North)", "country": "GB", "city": "London", "zipcode": "E14 2AA", "address": "14 Coriander Avenue", "clli": "LONDEN", "pdb_org_id": 7, "alternatenames": [], "sources": ["pdb"], "geo_id": 2643743, "num_ixs": 8, "fac_id": 19}
{"pdb_fac_id": 35, "name": "Digital Realty London LHR17", "country": "GB", "state": "Middlesex", "city": "West Drayton", "zipcode": "UB7 0NA", "address": "Unit 1Airport Gate Bath Road", "latitude": 51.482248, "longitude": -0.460224, "pdb_org_id": 8592, "alternatenames": [], "sources": ["pdb"], "geo_id": 2634451, "fac_id": 1438}
{"pdb_fac_id": 36, "name": "Equinix NY2/NY4/NY5/NY6 - New York, Secaucus", "country": "US", "state": "NJ", "city": "Secaucus", "zipcode": "07094", "address": "800 Secaucus Road", "latitude": 40.778534, "longitude": -74.072237, "clli": "SCCSNJ", "pdb_org_id": 2, "alternatenames": [], "sources": ["pdb"], "geo_id": 5104504, "num_ixs": 4, "fac_id": 20}
{"pdb_fac_id": 38, "name": "Equinix NY9 - New York, 111 8th Avenue", "country": "US", "state": "New York", "city": "New York", "zipcode": "10011", "address": "111 8th Ave", "latitude": 40.741469, "longitude": -74.003387, "clli": "NYCMNY", "pdb_org_id": 2, "alternatenames": [], "sources": ["pdb"], "geo_id": 5128581, "num_ixs": 2, "fac_id": 21}
{"pdb_fac_id": 39, "name": "Telehouse - London (Docklands East)", "country": "GB", "city": "London", "zipcode": "E14 2AA", "address": "14 Coriander Avenue", "clli": "LONDEN", "pdb_org_id": 7, "alternatenames": [], "sources": ["pdb"], "geo_id": 2643743, "num_ixs": 5, "fac_id": 22}
{"pdb_fac_id": 40, "name": "Digital Realty London LHR20", "country": "GB", "city": "London", "zipcode": "E14 9SD", "address": "Sovereign House227 Marsh Wall", "latitude": 51.499819, "longitude": -0.010775, "clli": "LONDEN", "pdb_org_id": 8592, "alternatenames": [], "sources": ["pdb"], "geo_id": 2643743, "num_ixs": 6, "fac_id": 23}
{"pdb_fac_id": 43, "name": "Digital Realty London LHR19", "country": "GB", "city": "London", "zipcode": "E14 9TR", "address": "Cloud HouseMillharbour 47", "latitude": 51.496902, "longitude": -0.018933, "clli": "LONDEN", "pdb_org_id": 8592, "alternatenames": [], "sources": ["pdb"], "geo_id": 2643743, "num_ixs": 4, "fac_id": 24}
{"pdb_fac_id": 45, "name": "Equinix LD8 - London, Docklands", "country": "GB", "city": "London", "zipcode": "E14 9GE", "address": "6-9 Harbour Exchange Square", "latitude": 51.498842, "longitude": -0.014327, "clli": "LONDEN", "pdb_org_id": 2, "alternatenames": [], "sources": ["pdb"], "geo_id": 2643743, "num_ixs": 8, "fac_id": 25}
{"pdb_fac_id": 46, "name": "Digital Realty London LON1-3", "country": "GB", "city": "London", "zipcode": "E1 6QR", "address": "11 Hanbury Street", "latitude": 51.520397, "longitude": -0.073777, "clli": "LONDEN", "pdb_org_id": 8592, "alternatenames": [], "sources": ["pdb"], "geo_id": 2643743, "num_ixs": 7, "fac_id": 26}
{"pdb_fac_id": 47, "name": "Global Switch London East", "country": "GB", "city": "London", "zipcode": "E14 2AX", "address": "3 Nutmeg Lane", "latitude": 51.510985, "longitude": -0.003494, "pdb_org_id": 77, "alternatenames": [], "sources": ["pdb"], "geo_id": 2643743, "num_ixs": 1, "fac_id": 27}
{"pdb_fac_id": 48, "name": "Global Switch London North", "country": "GB", "city": "London", "zipcode": "E14 944", "address": "240 East India Dock Road", "latitude": 51.511364, "longitude": -0.010634, "clli": "LONDEN", "pdb_org_id": 77, "alternatenames": [], "sources": ["pdb"], "geo_id": 2643743, "num_ixs": 1, "fac_id": 28}
{"pdb_fac_id": 50, "name": "Equinix LD1 - No longer operational", "country": "GB", "city": "London", "zipcode": "EC2A 1 RS", "address": "101 Finsbury Pavement", "latitude": 51.519453, "longitude": -0.087837, "pdb_org_id": 2, "alternatenames": [], "sources": ["pdb"], "geo_id": 2643743, "fac_id": 30}
{"pdb_fac_id": 53, "name": "Telehouse - Paris 2 (Voltaire - L\u00e9on Frot)", "country": "FR", "city": "Paris", "zipcode": "75011", "address": "137 Boulevard Voltaire65 Rue L\u00e9on Frot", "latitude": 48.856654, "longitude": 2.38532, "clli": "PARSFR", "pdb_org_id": 7, "alternatenames": [], "sources": ["pdb"], "geo_id": 2988507, "num_ixs": 8, "fac_id": 31}
{"pdb_fac_id": 54, "name": "Telehouse - Paris 1 (Je\u00fbneurs)", "country": "FR", "city": "Paris", "zipcode": "75002", "address": "38, rue des Je\u00fbneurs", "latitude": 48.869869, "longitude": 2.344236, "clli": "PARSFR", "pdb_org_id": 7, "alternatenames": [], "sources": ["pdb"], "geo_id": 2988507, "num_ixs": 2, "fac_id": 32}
{"pdb_fac_id": 55, "name": "SFR Netcenter Paris (Courbevoie)", "country": "FR", "city": "Paris", "zipcode": "92400", "address": "124 Boulevard de Verdun", "latitude": 48.903746, "longitude": 2.257694, "pdb_org_id": 11780, "alternatenames": [], "sources": ["pdb"], "geo_id": 2988507, "num_ixs": 1, "fac_id": 33}
{"pdb_fac_id": 56, "name": "Digital Realty Paris PAR1", "country": "FR", "city": "Paris", "zipcode": "93534", "address": "45 Avenue Victor HugoAubervilliers", "latitude": 48.902082, "longitude": 2.369496, "pdb_org_id": 8592, "alternatenames": [], "sources": ["pdb"], "geo_id": 2988507, "num_ixs": 2, "fac_id": 34}
{"pdb_fac_id": 57, "name": "SFR Netcenter Lyon-Venissieux", "country": "FR", "state": "Auvergne-Rh\u00f4ne-Alpes", "city": "V\u00e9nissieux", "zipcode": "69200", "address": "8 Rue Georges Marrane", "latitude": 45.722882, "longitude": 4.862905, "pdb_org_id": 11780, "alternatenames": [], "sources": ["pdb"], "geo_id": 2970072, "num_ixs": 2, "fac_id": 35}
{"pdb_fac_id": 58, "name": "Digital Realty Frankfurt FRA1-16", "country": "DE", "state": "Hessen", "city": "Frankfurt", "zipcode": "60314", "address": "Hanauer Landstrasse 298", "latitude": 50.11967, "longitude": 8.73463, "clli": "FRNKGE", "pdb_org_id": 8592, "alternatenames": [], "sources": ["pdb"], "geo_id": 2925533, "num_ixs": 19, "fac_id": 36}
{"pdb_fac_id": 59, "name": "ITENOS Frankfurt (FRA1)", "country": "DE", "state": "Hessen", "city": "Frankfurt", "zipcode": "60326", "address": "Rebstoeckerstrasse 25-31", "latitude": 50.099697, "longitude": 8.631763, "clli": "FRNKGE", "pdb_org_id": 98, "alternatenames": [], "sources": ["pdb"], "geo_id": 2925533, "num_ixs": 3, "fac_id": 37}
{"pdb_fac_id": 60, "name": "Equinix FR5 - Frankfurt, KleyerStrasse", "country": "DE", "city": "Frankfurt", "zipcode": "60326", "address": "Kleyerstrasse 90", "latitude": 50.09885, "longitude": 8.632004, "clli": "FRNKGE", "pdb_org_id": 2, "alternatenames": [], "sources": ["pdb"], "geo_id": 2925533, "num_ixs": 22, "fac_id": 38}
{"pdb_fac_id": 61, "name": "Digital Realty Amsterdam AMS17", "country": "NL", "city": "Amsterdam", "zipcode": "1098 XG", "address": "Science Park 120", "latitude": 52.356353, "longitude": 4.951609, "pdb_org_id": 8592, "alternatenames": [], "sources": ["pdb"], "geo_id": 2759794, "num_ixs": 7, "fac_id": 39}
{"pdb_fac_id": 62, "name": "Equinix AM7 - Amsterdam, Kuiperberweg", "country": "NL", "city": "Amsterdam", "zipcode": "1101 AE", "address": "Kuiperbergweg 13", "latitude": 52.303078, "longitude": 4.938009, "clli": "AMSTNL", "pdb_org_id": 2, "alternatenames": [], "sources": ["pdb"], "geo_id": 2759794, "num_ixs": 11, "fac_id": 40}
{"pdb_fac_id": 63, "name": "Global Switch Amsterdam", "country": "NL", "city": "Amsterdam", "zipcode": "1066 VH", "address": "Johan Huizingalaan 759", "latitude": 52.343984, "longitude": 4.828711, "clli": "AMSTNL", "pdb_org_id": 77, "alternatenames": [], "sources": ["pdb"], "geo_id": 2759794, "num_ixs": 5, "fac_id": 41}
{"pdb_fac_id": 64, "name": "Digital Realty Amsterdam AMS3, AMS5-8, AMS10", "country": "NL", "city": "Amsterdam", "zipcode": "1119 NJ", "address": "Cessnalaan 1", "latitude": 52.28415, "longitude": 4.770855, "clli": "AMSTNL", "pdb_org_id": 8592, "alternatenames": [], "sources": ["pdb"], "geo_id": 2759794, "num_ixs": 2, "fac_id": 42}
{"pdb_fac_id": 66, "name": "Vienna University Computer Center (Wien)", "country": "AT", "city": "Vienna", "zipcode": "1010", "address": "Universitaetsstrasse 7", "latitude": 48.214151, "longitude": 16.357784, "pdb_org_id": 106, "alternatenames": [], "sources": ["pdb"], "geo_id": 2761369, "num_ixs": 1, "fac_id": 43}
{"pdb_fac_id": 67, "name": "Digital Realty Vienna VIE1-2", "country": "AT", "city": "Vienna", "zipcode": "1210", "address": "Louis-Haefliger-Gasse 10", "latitude": 48.269027, "longitude": 16.410613, "pdb_org_id": 8592, "alternatenames": [], "sources": ["pdb"], "geo_id": 2761369, "num_ixs": 6, "fac_id": 44}
{"pdb_fac_id": 68, "name": "Digital Realty Brussels BRU1", "country": "BE", "city": "Brussels", "zipcode": "1930", "address": "Wezenbeekstraat 2Zaventem", "latitude": 50.870502, "longitude": 4.476941, "pdb_org_id": 8592, "alternatenames": [], "sources": ["pdb"], "geo_id": 2800866, "num_ixs": 4, "fac_id": 45}
{"pdb_fac_id": 69, "name": "Equinix DA3 - Dallas", "country": "US", "state": "TX", "city": "Dallas", "zipcode": "75207", "address": "1950 N Stemmons FwySuite 1039A", "latitude": 32.800955, "longitude": -96.81955, "clli": "DLLSTX", "pdb_org_id": 2, "alternatenames": [], "sources": ["pdb"], "geo_id": 4684888, "num_ixs": 4, "fac_id": 46}
{"pdb_fac_id": 71, "name": "Digital Realty Seattle SEA10", "country": "US", "state": "WA", "city": "Seattle", "zipcode": "98121", "address": "2001 Sixth AvenueSuite 300", "latitude": 47.614347, "longitude": -122.338883, "clli": "STTLWAWB", "pdb_org_id": 8592, "alternatenames": [], "sources": ["pdb"], "geo_id": 5809844, "num_ixs": 5, "fac_id": 47}
{"pdb_fac_id": 72, "name": "Equinix PA7 - Paris, Energy Park", "country": "FR", "city": "Paris", "zipcode": "92413", "address": "130-136 Boulevard de VerdunEnergy Park 9", "latitude": 48.904891, "longitude": 2.259202, "clli": "PARSFR", "pdb_org_id": 2, "alternatenames": [], "sources": ["pdb"], "geo_id": 2988507, "num_ixs": 2, "fac_id": 48}
{"pdb_fac_id": 73, "name": "Equinix PA5 - Paris, Victor Hugo", "country": "FR", "city": "Paris", "zipcode": "93534", "address": "45 Avenue Victor HugoAubervilliers", "latitude": 48.90407, "longitude": 2.369221, "clli": "PARSFR", "pdb_org_id": 2, "alternatenames": [], "sources": ["pdb"], "geo_id": 2988507, "num_ixs": 1, "fac_id": 1716}
{"pdb_fac_id": 74, "name": "Equinix FR7 - Frankfurt, Gutleutstrasse", "country": "DE", "city": "Frankfurt", "zipcode": "60327", "address": "Gutleutstrasse 310Frankfurt am Main", "latitude": 50.096869, "longitude": 8.644169, "clli": "FRNKGE", "pdb_org_id": 2, "alternatenames": [], "sources": ["pdb"], "geo_id": 2925533, "num_ixs": 6, "fac_id": 49}
{"pdb_fac_id": 75, "name": "Digital Realty Paris PAR2", "country": "FR", "city": "Paris", "zipcode": "93300", "address": "20 Rue des GardinouxAubervilliers", "latitude": 48.906617, "longitude": 2.370417, "pdb_org_id": 8592, "alternatenames": [], "sources": ["pdb"], "geo_id": 2988507, "num_ixs": 1, "fac_id": 50}
{"pdb_fac_id": 76, "name": "Equinix MA1 - Manchester, Williams/Kilburn", "country": "GB", "city": "Manchester", "zipcode": "M15 6SE", "address": "Manchester Science ParkLloyd Street North", "latitude": 53.463112, "longitude": -2.236869, "pdb_org_id": 2, "alternatenames": [], "sources": ["pdb"], "geo_id": 2643123, "num_ixs": 2, "fac_id": 51}
{"pdb_fac_id": 78, "name": "Equinix MA2 - Manchester, Reynolds House", "country": "GB", "city": "Manchester", "zipcode": "M15 5RN", "address": "Reynolds HouseTechnopark4 Archway", "latitude": 53.464349, "longitude": -2.247614, "pdb_org_id": 2, "alternatenames": [], "sources": ["pdb"], "geo_id": 2643123, "num_ixs": 1, "fac_id": 52}
{"pdb_fac_id": 79, "name": "Digital Realty London LHR21", "country": "GB", "city": "London", "zipcode": "E14 9FJ", "address": "Memaco House, Meridian Gate215 Marsh Wall", "latitude": 51.500621, "longitude": -0.011758, "pdb_org_id": 8592, "alternatenames": [], "sources": ["pdb"], "geo_id": 2643743, "num_ixs": 3, "fac_id": 53}
{"pdb_fac_id": 80, "name": "Equinix AM8 - Amsterdam, Gyroscoopweg", "country": "NL", "city": "Amsterdam", "zipcode": "1042 AB", "address": "Gyroscoopweg 2E & 2F", "latitude": 52.396814, "longitude": 4.838579, "clli": "AMSTNL", "pdb_org_id": 2, "alternatenames": [], "sources": ["pdb"], "geo_id": 2759794, "num_ixs": 4, "fac_id": 54}
{"pdb_fac_id": 81, "name": "Digital Realty Zurich ZUR1", "country": "CH", "state": "Z\u00fcrich", "city": "Glattbrugg", "zipcode": "8152", "address": "S\u00e4gereistrasse 35", "latitude": 47.432702, "longitude": 8.557273, "pdb_org_id": 8592, "alternatenames": [], "sources": ["pdb"], "geo_id": 2660590, "num_ixs": 4, "fac_id": 55}
{"pdb_fac_id": 82, "name": "Equinix ZH1 - No longer operational", "country": "CH", "state": "ZH", "city": "Zurich", "zipcode": "8005", "address": "Hardstrasse 235", "latitude": 47.387702, "longitude": 8.519008, "pdb_org_id": 2, "alternatenames": [], "sources": ["pdb"], "geo_id": 2657896, "num_ixs": 1, "fac_id": 56}
{"pdb_fac_id": 83, "name": "Equinix ZH2 - Zurich", "country": "CH", "state": "ZH", "city": "Zurich", "zipcode": "8005", "address": "Josefstrasse 225", "latitude": 47.387749, "longitude": 8.520255, "pdb_org_id": 2, "alternatenames": [], "sources": ["pdb"], "geo_id": 2657896, "num_ixs": 6, "fac_id": 57}
{"pdb_fac_id": 86, "name": "Equinix SE2/SE3 - Seattle", "country": "US", "state": "WA", "city": "Seattle", "zipcode": "98121", "address": "2001 Sixth Avenue", "latitude": 47.614358, "longitude": -122.338864, "clli": "STTLWA", "pdb_org_id": 2, "alternatenames": [], "sources": ["pdb"], "geo_id": 5809844, "num_ixs": 5, "fac_id": 58}
{"pdb_fac_id": 88, "name": "Equinix DC7 - Ashburn, Vienna", "country": "US", "state": "VA", "city": "Vienna", "zipcode": "22180", "address": "7990 Science Applications CtSuite 1", "latitude": 38.908422, "longitude": -77.219692, "clli": "VINNVA", "pdb_org_id": 2, "alternatenames": [], "sources": ["pdb"], "geo_id": 4791160, "num_ixs": 3, "fac_id": 59}
{"pdb_fac_id": 102, "name": "Equinix LA2 - Los Angeles", "country": "US", "state": "CA", "city": "Los Angeles", "zipcode": "90017", "address": "818 W 7th St6th Floor", "latitude": 34.048897, "longitude": -118.259585, "clli": "LSANCA", "pdb_org_id": 2, "alternatenames": [], "sources": ["pdb"], "geo_id": 5368361, "num_ixs": 4, "fac_id": 60}
{"pdb_fac_id": 103, "name": "Equinix LA5 - Los Angeles", "country": "US", "state": "CA", "city": "Los Angeles", "zipcode": "90017", "address": "1200 W. 7th StLower Level 1, Suite 120", "clli": "LSANCA", "pdb_org_id": 2, "alternatenames": [], "sources": ["pdb"], "geo_id": 5368361, "num_ixs": 1, "fac_id": 61}
{"pdb_fac_id": 104, "name": "Digital Realty Amsterdam AMS9", "country": "NL", "city": "Amsterdam", "zipcode": "1098 XG", "address": "Science Park 121", "latitude": 52.356671, "longitude": 4.952501, "clli": "AMSTNL", "pdb_org_id": 8592, "alternatenames": [], "sources": ["pdb"], "geo_id": 2759794, "num_ixs": 8, "fac_id": 62}
{"pdb_fac_id": 106, "name": "Digital Realty Dusseldorf DUS1-2", "country": "DE", "state": "Nordrhein-Westfalen", "city": "D\u00fcsseldorf", "zipcode": "D-40599", "address": "In der Steele 29", "latitude": 51.18827, "longitude": 6.86722, "pdb_org_id": 8592, "alternatenames": [], "sources": ["pdb"], "geo_id": 2934246, "num_ixs": 6, "fac_id": 63}
{"pdb_fac_id": 108, "name": "Telehouse - Frankfurt", "country": "DE", "city": "Frankfurt", "zipcode": "60326", "address": "Kleyerstrasse 75-87", "latitude": 50.096962, "longitude": 8.630057, "clli": "FRNKGE", "pdb_org_id": 7, "alternatenames": [], "sources": ["pdb"], "geo_id": 2925533, "num_ixs": 4, "fac_id": 64}
{"pdb_fac_id": 109, "name": "EdgeConneX Munich (EDCMUC01)", "country": "DE", "city": "Munich", "zipcode": "80687", "address": "Landsberger Str. 155", "latitude": 48.139859, "longitude": 11.526173, "pdb_org_id": 8735, "alternatenames": [], "sources": ["pdb"], "geo_id": 2867714, "num_ixs": 2, "fac_id": 65}
{"pdb_fac_id": 111, "name": "ColoCenter Frankfurt", "country": "DE", "city": "Frankfurt", "zipcode": "65760", "address": "Schwalbacher Strasse 60", "latitude": 50.103483, "longitude": 8.636254, "pdb_org_id": 174, "alternatenames": [], "sources": ["pdb"], "geo_id": 2925533, "fac_id": 66}
{"pdb_fac_id": 118, "name": "Equinix EN1 - Enschede", "country": "NL", "state": "OV", "city": "Enschede", "zipcode": "7521 PE", "address": "Auke Vleerstraat 1", "latitude": 52.236979, "longitude": 6.84964, "pdb_org_id": 2, "alternatenames": [], "sources": ["pdb"], "geo_id": 2756071, "num_ixs": 1, "fac_id": 67}
{"pdb_fac_id": 119, "name": "Digital Realty Frankfurt FRA28", "country": "DE", "state": "Hessia", "city": "Frankfurt", "zipcode": "60528", "address": "Lyoner Strasse 28", "latitude": 50.081709, "longitude": 8.623156, "pdb_org_id": 8592, "alternatenames": [], "sources": ["pdb"], "geo_id": 2925533, "num_ixs": 2, "fac_id": 68}
{"pdb_fac_id": 120, "name": "Digital Realty NYC (32 AofA)", "country": "US", "state": "NY", "city": "New York", "zipcode": "10013", "address": "32 6th Ave (Avenue of the Americas)", "latitude": 40.72, "longitude": -74.004561, "clli": "NYCMNY", "pdb_org_id": 8592, "alternatenames": [], "sources": ["pdb"], "geo_id": 5128581, "num_ixs": 3, "fac_id": 69}
{"pdb_fac_id": 121, "name": "Espanix Datacenter", "country": "ES", "city": "Madrid", "zipcode": "28033", "address": "Gran Via de Hortaleza 3Mesena 80", "latitude": 40.461575, "longitude": -3.65969, "pdb_org_id": 136, "alternatenames": [], "sources": ["pdb"], "geo_id": 3117735, "num_ixs": 3, "fac_id": 70}
{"pdb_fac_id": 122, "name": "Equinix BA1 - Barcelona", "country": "ES", "city": "Barcelona", "zipcode": "08038", "address": "Carrer de l'Acer 30-32", "latitude": 41.351557, "longitude": 2.137457, "pdb_org_id": 2, "alternatenames": [], "sources": ["pdb"], "geo_id": 3128760, "num_ixs": 3, "fac_id": 71}
{"pdb_fac_id": 125, "name": "Digital Realty ATL (56 Marietta)", "country": "US", "state": "GA", "city": "Atlanta", "zipcode": "30303", "address": "56 Marietta Street", "latitude": 33.755456, "longitude": -84.39153, "clli": "ATLNGA", "pdb_org_id": 8592, "alternatenames": [], "sources": ["pdb"], "geo_id": 4180439, "num_ixs": 3, "fac_id": 72}
{"pdb_fac_id": 126, "name": "Equinix LS1 - Lisbon", "country": "PT", "city": "Lisbon", "zipcode": "2685", "address": "Avenida Severiano Falc\u00e3o 142685-378 Prior Velho", "latitude": 38.787919, "longitude": -9.123454, "pdb_org_id": 2, "alternatenames": [], "sources": ["pdb"], "geo_id": 2267057, "num_ixs": 4, "fac_id": 73}
{"pdb_fac_id": 127, "name": "Equinix MD2 - Madrid", "country": "ES", "state": "Madrid", "city": "Alcobendas", "zipcode": "28108", "address": "Calle Valgrande 6", "latitude": 40.536855, "longitude": -3.648584, "pdb_org_id": 2, "alternatenames": [], "sources": ["pdb"], "geo_id": 3130583, "num_ixs": 4, "fac_id": 74}
{"pdb_fac_id": 129, "name": "IWB Basel", "country": "CH", "city": "Basel", "zipcode": "4053", "address": "Dachsfelderstrasse 17", "latitude": 47.546259, "longitude": 7.582093, "pdb_org_id": 200, "alternatenames": [], "sources": ["pdb"], "geo_id": 2661604, "num_ixs": 1, "fac_id": 75}
{"pdb_fac_id": 130, "name": "Digital Realty Madrid MAD1-2", "country": "ES", "city": "Madrid", "zipcode": "28037", "address": "C/ Albasanz 71", "latitude": 40.439323, "longitude": -3.621211, "pdb_org_id": 8592, "alternatenames": [], "sources": ["pdb"], "geo_id": 3117735, "num_ixs": 6, "fac_id": 76}
{"pdb_fac_id": 131, "name": "Equinix SY1/SY2 - Sydney", "country": "AU", "state": "NSW", "city": "Sydney", "zipcode": "2020", "address": "639 Gardeners RoadMascot", "latitude": -33.921868, "longitude": 151.188025, "clli": "SYDNAU", "pdb_org_id": 2, "alternatenames": [], "sources": ["pdb"], "geo_id": 2147714, "num_ixs": 5, "fac_id": 77}
{"pdb_fac_id": 133, "name": "Equinix FR1 - No longer operational", "country": "DE", "city": "Frankfurt", "zipcode": "60313", "address": "Taubenstrasse 7-9", "latitude": 50.116391, "longitude": 8.678206, "pdb_org_id": 2, "alternatenames": [], "sources": ["pdb"], "geo_id": 2925533, "fac_id": 78}
{"pdb_fac_id": 135, "name": "Level(3) Brussels", "country": "BE", "city": "Brussels", "zipcode": "1140", "address": "Leon Grosjeanlaan 2", "latitude": 50.857721, "longitude": 4.412116, "pdb_org_id": 682, "alternatenames": [], "sources": ["pdb"], "geo_id": 2800866, "num_ixs": 3, "fac_id": 79}
{"pdb_fac_id": 138, "name": "CSUC Campus Nord", "country": "ES", "city": "Barcelona", "zipcode": "E-08034", "address": "Gran Capita, 2 - 4 (Edifici Nexus)", "latitude": 41.387314, "longitude": 2.111883, "pdb_org_id": 9273, "alternatenames": [], "sources": ["pdb"], "geo_id": 3128760, "num_ixs": 1, "fac_id": 80}
{"pdb_fac_id": 139, "name": "Equinix GV1 - Geneva, City", "country": "CH", "state": "GE", "city": "Geneva", "zipcode": "1204", "address": "Rue de la Conf\u00e9d\u00e9ration 6", "latitude": 46.203607, "longitude": 6.144251, "pdb_org_id": 2, "alternatenames": [], "sources": ["pdb"], "geo_id": 2660646, "num_ixs": 2, "fac_id": 81}
{"pdb_fac_id": 142, "name": "Telehouse \u2013 TOKYO Otemachi (KDDI Otemachi)", "country": "JP", "city": "Tokyo", "zipcode": "100-0004", "address": "Otemachi BuildingOtemachi, Chiyoda-ku", "latitude": 35.686406, "longitude": 139.764809, "pdb_org_id": 7, "alternatenames": [], "sources": ["pdb"], "geo_id": 1850147, "num_ixs": 1, "fac_id": 82}
{"pdb_fac_id": 143, "name": "KINX Dogok", "country": "KR", "city": "Seoul", "address": "5F, Daelim Acrotel, 13, Eonju-ro 30-gil, Gangnam-gu", "latitude": 37.488139, "longitude": 127.051167, "pdb_org_id": 113, "alternatenames": [], "sources": ["pdb"], "geo_id": 1835848, "num_ixs": 3, "fac_id": 83}
{"pdb_fac_id": 144, "name": "Equinix DC8 - Ashburn, Vienna", "country": "US", "state": "VA", "city": "Vienna", "zipcode": "22180", "address": "8502A Tyco Rd", "latitude": 38.931419, "longitude": -77.238951, "clli": "VINNVA", "pdb_org_id": 2, "alternatenames": [], "sources": ["pdb"], "geo_id": 4791160, "num_ixs": 2, "fac_id": 84}
{"pdb_fac_id": 146, "name": "Equinix PH1 - Philadelphia", "country": "US", "state": "PA", "city": "Philadelphia", "zipcode": "19108", "address": "401 North Broad Street", "latitude": 39.959668, "longitude": -75.161377, "pdb_org_id": 2, "alternatenames": [], "sources": ["pdb"], "geo_id": 4560349, "num_ixs": 1, "fac_id": 85}
{"pdb_fac_id": 148, "name": "Digital Realty Copenhagen CPH1-3", "country": "DK", "city": "Copenhagen", "zipcode": "2750", "address": "Industriparken 20ABallerup", "latitude": 55.728092, "longitude": 12.377482, "pdb_org_id": 8592, "alternatenames": [], "sources": ["pdb"], "geo_id": 2618425, "num_ixs": 7, "fac_id": 86}
{"pdb_fac_id": 152, "name": "Moscow M9", "country": "RU", "city": "Moscow", "zipcode": "117485,", "address": "7, Butlerova street", "latitude": 55.652639, "longitude": 37.528861, "pdb_org_id": 237, "alternatenames": [], "sources": ["pdb"], "geo_id": 524901, "num_ixs": 14, "fac_id": 87}
{"pdb_fac_id": 153, "name": "Level(3) Duesseldorf", "country": "DE", "state": "North Rhine-Westphalia", "city": "D\u00fcsseldorf", "zipcode": "40599", "address": "In Der Steele 37A", "latitude": 51.18819, "longitude": 6.86728, "pdb_org_id": 682, "alternatenames": [], "sources": ["pdb"], "geo_id": 2934246, "num_ixs": 2, "fac_id": 88}
{"pdb_fac_id": 154, "name": "Telnet Caldera Milan", "country": "IT", "state": "Italy", "city": "Milan", "zipcode": "20153", "address": "Via Caldera 21 - Easy Point (Building F)", "latitude": 45.476177, "longitude": 9.103887, "pdb_org_id": 244, "alternatenames": [], "sources": ["pdb"], "geo_id": 3173435, "num_ixs": 1, "fac_id": 89}
{"pdb_fac_id": 155, "name": "Speedbone Berlin", "country": "DE", "state": "DE", "city": "Berlin", "zipcode": "12103", "address": "Alboinstr. 36 - 42Alboin-Kontor", "latitude": 52.465779, "longitude": 13.369905, "clli": "BRLNGE", "pdb_org_id": 248, "alternatenames": [], "sources": ["pdb"], "geo_id": 2950159, "num_ixs": 5, "fac_id": 90}
{"pdb_fac_id": 156, "name": "Equinix SK1 - Stockholm, Bromma", "country": "SE", "city": "Stockholm", "zipcode": "S-161 02", "address": "Marieh\u00e4llsv\u00e4gen 36", "latitude": 59.362574, "longitude": 17.955657, "pdb_org_id": 2, "alternatenames": [], "sources": ["pdb"], "geo_id": 2673730, "num_ixs": 11, "fac_id": 91}
{"pdb_fac_id": 157, "name": "colobern.ch Bern", "country": "CH", "state": "Bern", "city": "Bern", "zipcode": "3006", "address": "W\u00f6lflistrasse 1D3006 Bern", "latitude": 46.964845, "longitude": 7.478187, "pdb_org_id": 945, "alternatenames": [], "sources": ["pdb"], "geo_id": 2661552, "num_ixs": 1, "fac_id": 92}
{"pdb_fac_id": 158, "name": "GlobalConnect Taastrup 1 (CPH1)", "country": "DK", "state": "Hovedstaden", "city": "Taastrup", "zipcode": "2630", "address": "H\u00f8rsk\u00e6tten 3-52630 Taastrup", "latitude": 55.662021, "longitude": 12.301448, "pdb_org_id": 942, "alternatenames": [], "sources": ["pdb"], "geo_id": 2611828, "num_ixs": 6, "fac_id": 93}
{"pdb_fac_id": 159, "name": "PIPE Networks Brisbane", "country": "AU", "state": "QL", "city": "BRISBANE", "zipcode": "4000", "address": "Level 9,127 Creek St", "latitude": -27.465681, "longitude": 153.027805, "pdb_org_id": 260, "alternatenames": [], "sources": ["pdb"], "geo_id": 2174003, "num_ixs": 1, "fac_id": 94}
{"pdb_fac_id": 160, "name": "PIPE Networks Sydney", "country": "AU", "state": "NS", "city": "SYDNEY", "zipcode": "2000", "address": "Level 13,2 Park St,", "latitude": -33.872665, "longitude": 151.207641, "pdb_org_id": 260, "alternatenames": [], "sources": ["pdb"], "geo_id": 2147714, "num_ixs": 1, "fac_id": 95}
{"pdb_fac_id": 161, "name": "PIPE Networks Melbourne", "country": "AU", "state": "VI", "city": "MELBOURNE", "zipcode": "3000", "address": "Level 3,55 King St", "latitude": -37.819171, "longitude": 144.956726, "pdb_org_id": 260, "alternatenames": [], "sources": ["pdb"], "geo_id": 2158177, "num_ixs": 1, "fac_id": 96}
{"pdb_fac_id": 162, "name": "PIPE Networks Adelaide", "country": "AU", "state": "SA", "city": "Adelaide", "zipcode": "5000", "address": "Level 2,132 Franklin St", "latitude": -34.927233, "longitude": 138.594121, "pdb_org_id": 260, "alternatenames": [], "sources": ["pdb"], "geo_id": 2078025, "num_ixs": 2, "fac_id": 97}
{"pdb_fac_id": 163, "name": "PIPE Networks Hobart", "country": "AU", "state": "TA", "city": "HOBART", "zipcode": "7000", "address": "Level 2,29 Elizabeth St", "latitude": -42.881849, "longitude": 147.328921, "pdb_org_id": 260, "alternatenames": [], "sources": ["pdb"], "geo_id": 2163355, "num_ixs": 1, "fac_id": 98}
{"pdb_fac_id": 164, "name": "Equinix DB1 - Dublin, CityWest", "country": "IE", "city": "Dublin", "address": "Unit 4027, Kingswood RoadCity West Business Campus, Saggart", "latitude": 53.296306, "longitude": -6.41897, "pdb_org_id": 2, "alternatenames": [], "sources": ["pdb"], "geo_id": 2964574, "num_ixs": 3, "fac_id": 99}
{"pdb_fac_id": 165, "name": "Equinix SP4 - S\u00e3o Paulo", "country": "BR", "city": "Barueri", "zipcode": "06455000", "address": "Av. Ceci, 1900 - Res. TamboreTambor\u00e9", "latitude": -23.497589, "longitude": -46.814577, "pdb_org_id": 2, "alternatenames": [], "sources": ["pdb"], "geo_id": 3470353, "num_ixs": 5, "fac_id": 100}
{"pdb_fac_id": 167, "name": "Harbour Centre Vancouver", "country": "CA", "state": "BC", "city": "Vancouver", "zipcode": "V6B 4N6", "address": "555 West Hastings St.", "latitude": 49.284697, "longitude": -123.111935, "clli": "VANCBC", "pdb_org_id": 271, "alternatenames": [], "sources": ["pdb"], "geo_id": 6173331, "num_ixs": 5, "fac_id": 101}
{"pdb_fac_id": 168, "name": "Equinix TY1 - Tokyo", "country": "JP", "city": "Tokyo", "zipcode": "143-0006", "address": "TRC-C Building B Block, 4F 5-1Heiwajima 6-Chome, Oota-Ku", "latitude": 35.576366, "longitude": 139.749055, "clli": "EQTKJP", "pdb_org_id": 2, "alternatenames": [], "sources": ["pdb"], "geo_id": 1850147, "num_ixs": 2, "fac_id": 102}
{"pdb_fac_id": 170, "name": "Equinix HK1 - Hong Kong", "country": "HK", "state": "Hong Kong", "city": "Tsuen Wan", "address": "17/F Global Gateway (Hong Kong)168 Yeung Uk Road", "latitude": 22.365581, "longitude": 114.11932, "pdb_org_id": 2, "alternatenames": [], "sources": ["pdb"], "geo_id": 6930520, "num_ixs": 4, "fac_id": 103}
{"pdb_fac_id": 171, "name": "Digital Realty PHX (120 E Van Buren)", "country": "US", "state": "AZ", "city": "Phoenix", "zipcode": "85004", "address": "120 East Van Buren Street", "latitude": 33.452003, "longitude": -112.072042, "clli": "PHNXAZ", "pdb_org_id": 8592, "alternatenames": [], "sources": ["pdb"], "geo_id": 5308655, "num_ixs": 3, "fac_id": 104}
{"pdb_fac_id": 176, "name": "Level(3) Sunnyvale", "country": "US", "state": "CA", "city": "Sunnyvale", "zipcode": "95051", "address": "1380 Kifer Rd.", "latitude": 37.373412, "longitude": -121.98778, "clli": "SNVACA", "pdb_org_id": 682, "alternatenames": [], "sources": ["pdb"], "geo_id": 5400075, "num_ixs": 1, "fac_id": 105}
{"pdb_fac_id": 177, "name": "Digital Realty Dublin DUB1-2", "country": "IE", "city": "Dublin", "address": "Unit 35 Lavery AvenuePark West Business Park", "latitude": 53.334251, "longitude": -6.365538, "pdb_org_id": 8592, "alternatenames": [], "sources": ["pdb"], "geo_id": 2964574, "num_ixs": 2, "fac_id": 106}
{"pdb_fac_id": 178, "name": "Equinix DB2 - Dublin, Kilcarbery", "country": "IE", "city": "Dublin", "address": "Kilcarbery Business ParkNangor Road", "latitude": 53.318647, "longitude": -6.439957, "pdb_org_id": 2, "alternatenames": [], "sources": ["pdb"], "geo_id": 2964574, "num_ixs": 3, "fac_id": 107}
{"pdb_fac_id": 179, "name": "Equinix MD1 - Madrid", "country": "ES", "city": "Madrid", "zipcode": "28050", "address": "Calle Isabel Colbrand 6-8", "latitude": 40.513497, "longitude": -3.671891, "pdb_org_id": 2, "alternatenames": [], "sources": ["pdb"], "geo_id": 3117735, "num_ixs": 1, "fac_id": 108}
{"pdb_fac_id": 185, "name": "NorthC N\u00fcrnberg", "country": "DE", "state": "Bavaria", "city": "Nuremberg", "zipcode": "90475", "address": "Am Tower 5", "latitude": 49.38991, "longitude": 11.17706, "pdb_org_id": 297, "alternatenames": [], "sources": ["pdb"], "geo_id": 2861650, "num_ixs": 1, "fac_id": 109}
{"pdb_fac_id": 186, "name": "Netrality - Indy Telcom Center - 733 W. Henry", "country": "US", "state": "IN", "city": "Indianapolis", "zipcode": "46225", "address": "733 W. Henry St", "latitude": 39.75988, "longitude": -86.172275, "clli": "IPLVIN", "pdb_org_id": 13880, "alternatenames": [], "sources": ["pdb"], "geo_id": 4259418, "num_ixs": 2, "fac_id": 110}
{"pdb_fac_id": 188, "name": "FiberNet Telecom Group - 60 Hudson St", "country": "US", "state": "NY", "city": "New York", "zipcode": "10013", "address": "60 Hudson StSuite 1903", "latitude": 40.717664, "longitude": -74.008333, "clli": "NYCMNY", "pdb_org_id": 308, "alternatenames": [], "sources": ["pdb"], "geo_id": 5128581, "num_ixs": 1, "fac_id": 111}
{"pdb_fac_id": 189, "name": "FiberNet Telecom Group New York (111 Eighth Ave)", "country": "US", "state": "NY", "city": "New York", "zipcode": "10011", "address": "111 Eighth AveSuite 303", "latitude": 40.741355, "longitude": -74.003203, "clli": "NYCMNY", "pdb_org_id": 308, "alternatenames": [], "sources": ["pdb"], "geo_id": 5128581, "num_ixs": 1, "fac_id": 112}
{"pdb_fac_id": 190, "name": "LCL Antwerp", "country": "BE", "city": "Antwerp", "zipcode": "2000", "address": "Noorderlaan 133", "latitude": 51.264294, "longitude": 4.402951, "pdb_org_id": 314, "alternatenames": [], "sources": ["pdb"], "geo_id": 2803138, "num_ixs": 2, "fac_id": 113}
{"pdb_fac_id": 192, "name": "Level(3) Munich", "country": "DE", "city": "Munich", "zipcode": "81829", "address": "Wamslerstrasse 8", "latitude": 48.135973, "longitude": 11.662742, "pdb_org_id": 682, "alternatenames": [], "sources": ["pdb"], "geo_id": 2867714, "num_ixs": 2, "fac_id": 1279}
{"pdb_fac_id": 193, "name": "LCL Brussels (Diegem)", "country": "BE", "city": "Brussels", "zipcode": "1831", "address": "Kouterveldstraat 13Diegem", "latitude": 50.887474, "longitude": 4.455068, "pdb_org_id": 314, "alternatenames": [], "sources": ["pdb"], "geo_id": 2800866, "num_ixs": 4, "fac_id": 114}
{"pdb_fac_id": 195, "name": "AAPT Glebe", "country": "AU", "state": "NS", "city": "Sydney", "zipcode": "2037", "address": "30 Ross StreetGlebe", "latitude": -33.883255, "longitude": 151.182583, "pdb_org_id": 322, "alternatenames": [], "sources": ["pdb"], "geo_id": 2147714, "num_ixs": 1, "fac_id": 115}
{"pdb_fac_id": 196, "name": "Global Switch Sydney", "country": "AU", "state": "NSW", "city": "Sydney", "zipcode": "2007", "address": "400 Harris StreetUltimo", "latitude": -33.875599, "longitude": 151.197691, "pdb_org_id": 77, "alternatenames": [], "sources": ["pdb"], "geo_id": 2147714, "num_ixs": 4, "fac_id": 116}
{"pdb_fac_id": 197, "name": "AAPT Haymarket", "country": "AU", "state": "NS", "city": "Sydney", "zipcode": "2006", "address": "187 Thomas StreetHaymarket", "latitude": -33.881547, "longitude": 151.203797, "pdb_org_id": 322, "alternatenames": [], "sources": ["pdb"], "geo_id": 2147714, "num_ixs": 1, "fac_id": 117}
{"pdb_fac_id": 198, "name": "AAPT Brisbane", "country": "AU", "state": "QL", "city": "Brisbane", "zipcode": "4000", "address": "Level 8, 123 Eagle StreetBrisbane", "latitude": -27.467146, "longitude": 153.030416, "pdb_org_id": 322, "alternatenames": [], "sources": ["pdb"], "geo_id": 2174003, "num_ixs": 1, "fac_id": 118}
{"pdb_fac_id": 199, "name": "AAPT Fortitude Valley", "country": "AU", "state": "QL", "city": "Brisbane", "zipcode": "4006", "address": "Level 1, 100 Wickham StreetFortitude Valley", "latitude": -27.459649, "longitude": 153.03099, "pdb_org_id": 322, "alternatenames": [], "sources": ["pdb"], "geo_id": 2174003, "num_ixs": 1, "fac_id": 119}
{"pdb_fac_id": 200, "name": "AAPT Melbourne", "country": "AU", "state": "VI", "city": "Melbourne", "zipcode": "3000", "address": "Level 5, 530 Collins StreetMelbourne", "latitude": -37.817684, "longitude": 144.956817, "pdb_org_id": 322, "alternatenames": [], "sources": ["pdb"], "geo_id": 2158177, "num_ixs": 1, "fac_id": 120}
{"pdb_fac_id": 201, "name": "AAPT Adelaide", "country": "AU", "state": "SA", "city": "Adelaide", "zipcode": "5000", "address": "Level 1, 45 Pirie StreetAdelaide", "latitude": -34.926075, "longitude": 138.6013, "pdb_org_id": 322, "alternatenames": [], "sources": ["pdb"], "geo_id": 2078025, "num_ixs": 1, "fac_id": 121}
{"pdb_fac_id": 203, "name": "Deutschherrnkarree", "country": "DE", "state": "Bavaria", "city": "Nuremberg", "zipcode": "90429", "address": "Deutschherrnstra\u00dfe 15-19Hochstra\u00dfe 14-16", "latitude": 49.453955, "longitude": 11.063356, "pdb_org_id": 339, "alternatenames": [], "sources": ["pdb"], "geo_id": 2861650, "num_ixs": 1, "fac_id": 122}
{"pdb_fac_id": 208, "name": "Digital Realty Stockholm STO1-6", "country": "SE", "city": "Stockholm", "zipcode": "16494", "address": "Esbogatan 11Kista", "latitude": 59.422226, "longitude": 17.916696, "pdb_org_id": 8592, "alternatenames": [], "sources": ["pdb"], "geo_id": 2673730, "num_ixs": 10, "fac_id": 123}
{"pdb_fac_id": 211, "name": "Singapore Open Exchange (SOX)", "country": "SG", "city": "Singapore", "zipcode": "117584", "address": "National University of Singapore / Computer Centre2 Engineering Drive 4", "latitude": 1.297541, "longitude": 103.772471, "pdb_org_id": 353, "alternatenames": [], "sources": ["pdb"], "geo_id": 1880252, "num_ixs": 1, "fac_id": 124}
{"pdb_fac_id": 212, "name": "Spaanse Kubus Rotterdam", "country": "NL", "city": "Rotterdam", "zipcode": "3044", "address": "Vlaardingweg 62 - 415", "latitude": 51.930359, "longitude": 4.414322, "pdb_org_id": 355, "alternatenames": [], "sources": ["pdb"], "geo_id": 2747891, "num_ixs": 2, "fac_id": 125}
{"pdb_fac_id": 213, "name": "Unilogic Networks Datacenter Sittard", "country": "NL", "state": "Limburg", "city": "Sittard", "zipcode": "6135KD", "address": "Bergerweg 120", "latitude": 50.995925, "longitude": 5.845593, "pdb_org_id": 358, "alternatenames": [], "sources": ["pdb"], "geo_id": 2747203, "num_ixs": 1, "fac_id": 126}
{"pdb_fac_id": 214, "name": "CE Colo Prague", "country": "CZ", "city": "Prague", "zipcode": "10600", "address": "Nad Elektrarnou 1428/47", "latitude": 50.060164, "longitude": 14.482978, "pdb_org_id": 8089, "alternatenames": [], "sources": ["pdb"], "geo_id": 3067696, "num_ixs": 4, "fac_id": 127}
{"pdb_fac_id": 215, "name": "DC Tower Zizkov CRa", "country": "CZ", "state": "Prague", "city": "Prague", "zipcode": "130 00", "address": "Mahlerovy sady 1", "latitude": 50.08103, "longitude": 14.451122, "pdb_org_id": 364, "alternatenames": [], "sources": ["pdb"], "geo_id": 3067696, "num_ixs": 2, "fac_id": 128}
{"pdb_fac_id": 216, "name": "GTS Telehouse Prague", "country": "CZ", "city": "Prague", "zipcode": "13000", "address": "Vinohradsk\u00e1 190", "latitude": 50.078094, "longitude": 14.475889, "pdb_org_id": 366, "alternatenames": [], "sources": ["pdb"], "geo_id": 3067696, "num_ixs": 2, "fac_id": 129}
{"pdb_fac_id": 217, "name": "Pragonet Telehouse Prague", "country": "CZ", "city": "Prague", "zipcode": "14000", "address": "5. kv\u011btna 65", "latitude": 50.062152, "longitude": 14.428607, "pdb_org_id": 368, "alternatenames": [], "sources": ["pdb"], "geo_id": 3067696, "num_ixs": 1, "fac_id": 130}
{"pdb_fac_id": 218, "name": "Arelion Dusseldorf DDF/B", "country": "DE", "city": "D\u00fcsseldorf", "zipcode": "40599", "address": "In der Steele 43", "latitude": 51.188, "longitude": 6.86608, "pdb_org_id": 28858, "alternatenames": [], "sources": ["pdb"], "geo_id": 2934246, "num_ixs": 2, "fac_id": 131}
{"pdb_fac_id": 219, "name": "Markley Group One Summer Street Boston", "country": "US", "state": "MA", "city": "Boston", "zipcode": "02110", "address": "1 Summer Street", "latitude": 42.354692, "longitude": -71.060266, "clli": "BSTNMA", "pdb_org_id": 373, "alternatenames": [], "sources": ["pdb"], "geo_id": 4930956, "num_ixs": 1, "fac_id": 132}
{"pdb_fac_id": 220, "name": "BCE Colocation Luxembourg", "country": "LU", "city": "Luxembourg", "zipcode": "2850", "address": "45, Boulevard Pierre Frieden", "latitude": 49.637608, "longitude": 6.164559, "pdb_org_id": 376, "alternatenames": [], "sources": ["pdb"], "geo_id": 2960316, "num_ixs": 1, "fac_id": 133}
{"pdb_fac_id": 222, "name": "Telia Telehouse Copenhagen", "country": "DK", "city": "Copenhagen", "zipcode": "2600", "address": "Sydvestvej 100Glostrup", "latitude": 55.661921, "longitude": 12.377342, "pdb_org_id": 10041, "alternatenames": [], "sources": ["pdb"], "geo_id": 2618425, "num_ixs": 1, "fac_id": 134}
{"pdb_fac_id": 225, "name": "MEGA-i (iAdvantage Hong Kong)", "country": "HK", "city": "Hong Kong", "address": "399 Chai Wan RoadChai Wan", "latitude": 22.266098, "longitude": 114.246512, "pdb_org_id": 12354, "alternatenames": [], "sources": ["pdb"], "geo_id": 1819729, "num_ixs": 6, "fac_id": 135}
{"pdb_fac_id": 226, "name": "Digital Realty Marseille MRS1-3", "country": "FR", "city": "Marseille", "zipcode": "MRS1: 13003  MRS2/3: 13015", "address": "MRS1: 40 Avenue Roger SalengroMRS2/3: Port of Marseille, Gate 4; Chemin du Littoral", "latitude": 43.310818, "longitude": 5.373865, "pdb_org_id": 8592, "alternatenames": [], "sources": ["pdb"], "geo_id": 2995469, "num_ixs": 7, "fac_id": 136}
{"pdb_fac_id": 230, "name": "Cogent Lille", "country": "FR", "city": "Lille", "zipcode": "59000", "address": "72 rue Jenner", "latitude": 50.63768, "longitude": 3.090551, "pdb_org_id": 365, "alternatenames": [], "sources": ["pdb"], "geo_id": 2998324, "num_ixs": 1, "fac_id": 1280}
{"pdb_fac_id": 233, "name": "SFR Netcenter Strasbourg", "country": "FR", "city": "Strasbourg", "zipcode": "67000", "address": "1 rue du Havre", "latitude": 48.569149, "longitude": 7.781145, "pdb_org_id": 11780, "alternatenames": [], "sources": ["pdb"], "geo_id": 2973783, "num_ixs": 1, "fac_id": 1717}
{"pdb_fac_id": 235, "name": "Mediagateway", "country": "NL", "state": "NH", "city": "Hilversum", "zipcode": "1217 ZC", "address": "Koos Postemalaan 2", "latitude": 52.241526, "longitude": 5.169722, "pdb_org_id": 7200, "alternatenames": [], "sources": ["pdb"], "geo_id": 2754064, "num_ixs": 1, "fac_id": 137}
{"pdb_fac_id": 236, "name": "Digital Realty Amsterdam AMS1, AMS4", "country": "NL", "city": "Amsterdam", "zipcode": "1042 AC", "address": "Gyroscoopweg 60-62", "latitude": 52.399861, "longitude": 4.842597, "clli": "AMSTNL", "pdb_org_id": 8592, "alternatenames": [], "sources": ["pdb"], "geo_id": 2759794, "num_ixs": 1, "fac_id": 138}
{"pdb_fac_id": 237, "name": "Schuberg Philis Amsterdam (Schiphol Rijk)", "country": "NL", "city": "Amsterdam", "zipcode": "1119 PD", "address": "Boeing Avenue 271", "latitude": 52.274896, "longitude": 4.750866, "clli": "AMSTNL", "pdb_org_id": 410, "alternatenames": [], "sources": ["pdb"], "geo_id": 2759794, "num_ixs": 2, "fac_id": 139}
{"pdb_fac_id": 238, "name": "NorthC Oude Meer", "country": "NL", "state": "Noord-Holland", "city": "Oude Meer", "zipcode": "1438 AN", "address": "Fokkerweg 300", "latitude": 52.29257, "longitude": 4.788162, "clli": "AMSTNL", "pdb_org_id": 4570, "alternatenames": [], "sources": ["pdb"], "geo_id": 2749063, "num_ixs": 1, "fac_id": 140}
{"pdb_fac_id": 239, "name": "NorthC Aalsmeer", "country": "NL", "state": "Noord-Holland", "city": "Aalsmeer", "zipcode": "1431 GE", "address": "Lakenblekerstraat 13", "latitude": 52.259795, "longitude": 4.774186, "pdb_org_id": 4570, "alternatenames": [], "sources": ["pdb"], "geo_id": 2760134, "num_ixs": 1, "fac_id": 141}
{"pdb_fac_id": 252, "name": "Cogent Montpellier", "country": "FR", "city": "Montpellier", "zipcode": "34070", "address": "189 place du 56e R\u00e9giment d'Artillerie", "pdb_org_id": 365, "alternatenames": [], "sources": ["pdb"], "geo_id": 2992166, "num_ixs": 1, "fac_id": 1281}
{"pdb_fac_id": 254, "name": "Redcentric London Data Centre", "country": "GB", "city": "London", "zipcode": "EC2A 4HB", "address": "80 Clifton Street", "latitude": 51.522955, "longitude": -0.082993, "clli": "LONDEN", "pdb_org_id": 9597, "alternatenames": [], "sources": ["pdb"], "geo_id": 2643743, "num_ixs": 1, "fac_id": 142}
{"pdb_fac_id": 258, "name": "STOKAB KN3, Kista", "country": "SE", "city": "Stockholm", "zipcode": "16440", "address": "Borgafjordsgatan 15", "latitude": 59.405682, "longitude": 17.943347, "pdb_org_id": 343, "alternatenames": [], "sources": ["pdb"], "geo_id": 2673730, "fac_id": 143}
{"pdb_fac_id": 266, "name": "Cogent Toulouse", "country": "FR", "city": "Toulouse", "zipcode": "31200", "address": "125bis ch du Sang de Serp", "latitude": 43.620447, "longitude": 1.423103, "pdb_org_id": 365, "alternatenames": [], "sources": ["pdb"], "geo_id": 2972315, "num_ixs": 1, "fac_id": 144}
{"pdb_fac_id": 267, "name": "Citynet Columbus", "country": "US", "state": "OH", "city": "Columbus", "zipcode": "43219", "address": "251 Neilston St.", "latitude": 39.968171, "longitude": -82.994861, "clli": "CLMCOH", "pdb_org_id": 470, "alternatenames": [], "sources": ["pdb"], "geo_id": 4509177, "num_ixs": 1, "fac_id": 145}
{"pdb_fac_id": 271, "name": "Pulsant Edinburgh South Gyle", "country": "GB", "city": "Edinburgh", "zipcode": "EH129LB", "address": "The Clocktower Estate, Flassches YardSouth Gyle Crescent", "latitude": 55.930562, "longitude": -3.295901, "pdb_org_id": 7980, "alternatenames": [], "sources": ["pdb"], "geo_id": 2650225, "num_ixs": 1, "fac_id": 146}
{"pdb_fac_id": 274, "name": "myLoc Datacenter DUS1, DUS2, DUS3, DUS4, DUS6, DUS7", "country": "DE", "state": "NRW", "city": "D\u00fcsseldorf", "zipcode": "40472", "address": "Am Gatherhof 44", "latitude": 51.267301, "longitude": 6.81752, "pdb_org_id": 7459, "alternatenames": [], "sources": ["pdb"], "geo_id": 2934246, "num_ixs": 6, "fac_id": 147}
{"pdb_fac_id": 275, "name": "The Pittock", "country": "US", "state": "Oregon", "city": "Portland", "zipcode": "97205", "address": "921 SW Washington St", "latitude": 45.521366, "longitude": -122.680792, "clli": "PTLDORPB", "pdb_org_id": 29970, "alternatenames": [], "sources": ["pdb"], "geo_id": 5746545, "num_ixs": 1, "fac_id": 148}
{"pdb_fac_id": 277, "name": "NTT Frankfurt 1 Data Center (FRA1)", "country": "DE", "state": "Hessen", "city": "Frankfurt", "zipcode": "60489", "address": "Eschborner Landstrasse 100", "latitude": 50.128192, "longitude": 8.601436, "clli": "FRNKGE", "pdb_org_id": 491, "alternatenames": [], "sources": ["pdb"], "geo_id": 2925533, "num_ixs": 5, "fac_id": 149}
{"pdb_fac_id": 282, "name": "Equinix SG1 - Singapore", "country": "SG", "city": "Singapore", "zipcode": "139964", "address": "20 Ayer Rajah Crescent#05-05/08", "latitude": 1.295229, "longitude": 103.789842, "pdb_org_id": 2, "alternatenames": [], "sources": ["pdb"], "geo_id": 1880252, "num_ixs": 10, "fac_id": 150}
{"pdb_fac_id": 283, "name": "365 Data Centers Chicago (CH6)", "country": "US", "state": "IL", "city": "Chicago", "zipcode": "60605", "address": "427 S. La Salle4th Floor", "latitude": 41.876212, "longitude": -87.631453, "pdb_org_id": 9314, "alternatenames": [], "sources": ["pdb"], "geo_id": 4887398, "num_ixs": 2, "fac_id": 1210}
{"pdb_fac_id": 286, "name": "CoreSite - Washington,DC (DC1)", "country": "US", "state": "DC", "city": "Washington", "zipcode": "20005", "address": "1275 K Street, NWSuite 700", "latitude": 38.902918, "longitude": -77.029149, "clli": "WASHDC12", "pdb_org_id": 34, "alternatenames": [], "sources": ["pdb"], "geo_id": 4140963, "num_ixs": 2, "fac_id": 151}
{"pdb_fac_id": 290, "name": "aixit Frankfurt", "country": "DE", "state": "Hessen", "city": "Frankfurt", "zipcode": "60326", "address": "Rebst\u00f6cker Stra\u00dfe 55", "latitude": 50.1009, "longitude": 8.629585, "clli": "FRNKGE", "pdb_org_id": 514, "alternatenames": [], "sources": ["pdb"], "geo_id": 2925533, "num_ixs": 1, "fac_id": 152}
{"pdb_fac_id": 291, "name": "NewColo Frankfurt", "country": "DE", "city": "Frankfurt", "zipcode": "60326", "address": "Mainzer Landstrasse 351-353", "latitude": 50.101713, "longitude": 8.63429, "clli": "FRNKGE", "pdb_org_id": 516, "alternatenames": [], "sources": ["pdb"], "geo_id": 2925533, "num_ixs": 1, "fac_id": 153}
{"pdb_fac_id": 294, "name": "ITGate PdF (TRN1/TRN2)", "country": "IT", "city": "Turin", "zipcode": "10149", "address": "Corso Svizzera 185Building 3", "latitude": 45.090688, "longitude": 7.660825, "clli": "TORIIT", "pdb_org_id": 7507, "alternatenames": [], "sources": ["pdb"], "geo_id": 3165524, "num_ixs": 2, "fac_id": 154}
{"pdb_fac_id": 295, "name": "AtlasEdge DC Brussels 1&2", "country": "BE", "city": "Brussels", "zipcode": "1930", "address": "Mercuriusstraat 30, Nossegem", "latitude": 50.872026, "longitude": 4.503629, "pdb_org_id": 30458, "alternatenames": [], "sources": ["pdb"], "geo_id": 2800866, "num_ixs": 1, "fac_id": 155}
{"pdb_fac_id": 300, "name": "BIX Building (Victor Hugo street)", "country": "HU", "city": "Budapest", "zipcode": "1132", "address": "Victor Hugo utca 18-22.", "latitude": 47.51796, "longitude": 19.055712, "pdb_org_id": 533, "alternatenames": [], "sources": ["pdb"], "geo_id": 3054643, "num_ixs": 1, "fac_id": 156}
{"pdb_fac_id": 301, "name": "Dataplex Budapest", "country": "HU", "city": "Budapest", "zipcode": "1087", "address": "Asztalos Sandor utca 13.", "latitude": 47.448989, "longitude": 19.107458, "pdb_org_id": 536, "alternatenames": [], "sources": ["pdb"], "geo_id": 3054643, "num_ixs": 2, "fac_id": 157}
{"pdb_fac_id": 306, "name": "Equinix PA2 - Paris, Saint-Denis", "country": "FR", "city": "Paris", "zipcode": "93200", "address": "Rue Ambroise Croizat, 114Saint-Denis", "latitude": 48.927166, "longitude": 2.350664, "clli": "PARSFR", "pdb_org_id": 2, "alternatenames": [], "sources": ["pdb"], "geo_id": 2988507, "num_ixs": 3, "fac_id": 158}
{"pdb_fac_id": 316, "name": "Neutral Data Toronto", "country": "CA", "state": "ON", "city": "Toronto", "zipcode": "M5J 2N1", "address": "151 Front St. W.Suite 800", "latitude": 43.644632, "longitude": -79.384228, "clli": "TOROON", "pdb_org_id": 558, "alternatenames": [], "sources": ["pdb"], "geo_id": 6167865, "num_ixs": 1, "fac_id": 159}
{"pdb_fac_id": 317, "name": "Telehouse - Los Angeles", "country": "US", "state": "CA", "city": "Los Angeles", "zipcode": "90017", "address": "626 Wilshire Blvd #600", "latitude": 34.048275, "longitude": -118.256985, "clli": "LSANCA", "pdb_org_id": 7, "alternatenames": [], "sources": ["pdb"], "geo_id": 5368361, "num_ixs": 1, "fac_id": 160}
{"pdb_fac_id": 331, "name": "Level(3) Berlin", "country": "DE", "city": "Berlin", "zipcode": "12347", "address": "Gradestrasse 60", "latitude": 52.452868, "longitude": 13.428412, "pdb_org_id": 682, "alternatenames": [], "sources": ["pdb"], "geo_id": 2950159, "num_ixs": 2, "fac_id": 161}
{"pdb_fac_id": 332, "name": "Netrality St. Louis - 900 Walnut", "country": "US", "state": "MO", "city": "St. Louis", "zipcode": "63101", "address": "900 Walnut - Netrality Data Center Meet Me Room900 Walnut Street", "latitude": 38.625536, "longitude": -90.195238, "pdb_org_id": 13880, "alternatenames": [], "sources": ["pdb"], "geo_id": 4407066, "num_ixs": 4, "fac_id": 162}
{"pdb_fac_id": 333, "name": "Equinix LA3/LA4 - Los Angeles, El Segundo", "country": "US", "state": "CA", "city": "El Segundo", "zipcode": "90245-3411", "address": "445 North Douglas Street", "latitude": 33.921239, "longitude": -118.383778, "pdb_org_id": 2, "alternatenames": [], "sources": ["pdb"], "geo_id": 5345860, "num_ixs": 3, "fac_id": 163}
{"pdb_fac_id": 336, "name": "colozueri.ch Zurich", "country": "CH", "state": "ZH", "city": "Zurich", "zipcode": "8048", "address": "Badenerstrasse 569", "latitude": 47.38338, "longitude": 8.495621, "pdb_org_id": 31741, "alternatenames": [], "sources": ["pdb"], "geo_id": 2657896, "num_ixs": 4, "fac_id": 164}
{"pdb_fac_id": 345, "name": "STACK EMEA - OSL01", "country": "NO", "city": "Oslo", "zipcode": "0581", "address": "Ulvenveien 89b", "latitude": 59.924726, "longitude": 10.810183, "pdb_org_id": 603, "alternatenames": [], "sources": ["pdb"], "geo_id": 3143244, "num_ixs": 2, "fac_id": 165}
{"pdb_fac_id": 346, "name": "Forskningsparken Oslo", "country": "NO", "city": "Oslo", "zipcode": "N-0349", "address": "Gaustadall\u00e9en 21", "latitude": 59.942329, "longitude": 10.71639, "pdb_org_id": 606, "alternatenames": [], "sources": ["pdb"], "geo_id": 3143244, "fac_id": 166}
{"pdb_fac_id": 348, "name": "Level(3) New York", "country": "US", "state": "NY", "city": "New York", "address": "85 10th Avenue", "latitude": 40.743136, "longitude": -74.007652, "clli": "NYCMNY", "pdb_org_id": 682, "alternatenames": [], "sources": ["pdb"], "geo_id": 5128581, "num_ixs": 1, "fac_id": 167}
{"pdb_fac_id": 349, "name": "Linxdatacenter (Moscow)", "country": "RU", "state": "Russian Federation", "city": "Moscow", "zipcode": "127083", "address": "8 Marta 14", "latitude": 55.805323, "longitude": 37.551781, "pdb_org_id": 600, "alternatenames": [], "sources": ["pdb"], "geo_id": 524901, "num_ixs": 3, "fac_id": 168}
{"pdb_fac_id": 350, "name": "165 Halsey Meet-Me Room", "country": "US", "state": "NJ", "city": "Newark", "zipcode": "07102-2834", "address": "165 Halsey St9th floor", "latitude": 40.736844, "longitude": -74.173402, "clli": "NWRKNJ", "pdb_org_id": 616, "alternatenames": [], "sources": ["pdb"], "geo_id": 5101798, "num_ixs": 3, "fac_id": 169}
{"pdb_fac_id": 351, "name": "Equinix DU1 - Dusseldorf", "country": "DE", "city": "D\u00fcsseldorf", "zipcode": "40233", "address": "Albertstrasse 27", "latitude": 51.219632, "longitude": 6.80715, "pdb_org_id": 2, "alternatenames": [], "sources": ["pdb"], "geo_id": 2934246, "num_ixs": 2, "fac_id": 170}
{"pdb_fac_id": 352, "name": "London Hosting Centre", "country": "GB", "city": "London", "zipcode": "E14 9NN", "address": "City Reach, 6 Greenwich View PlaceMillharbour", "latitude": 51.494644, "longitude": -0.018318, "clli": "LONDEN", "pdb_org_id": 621, "alternatenames": [], "sources": ["pdb"], "geo_id": 2643743, "num_ixs": 1, "fac_id": 171}
{"pdb_fac_id": 354, "name": "Level(3) London (Goswell Road)", "country": "GB", "city": "London", "zipcode": "EC1V 7EB", "address": "260-266 Goswell RoadIslington", "latitude": 51.528721, "longitude": -0.100964, "clli": "LONDEN", "pdb_org_id": 682, "alternatenames": [], "sources": ["pdb"], "geo_id": 2643743, "num_ixs": 1, "fac_id": 1282}
{"pdb_fac_id": 363, "name": "CoreSite - Los Angeles (LA2)", "country": "US", "state": "CA", "city": "Los Angeles", "zipcode": "90012", "address": "900 N. Alameda", "latitude": 34.058096, "longitude": -118.235357, "clli": "LSANCAVJ", "pdb_org_id": 34, "alternatenames": [], "sources": ["pdb"], "geo_id": 5368361, "num_ixs": 3, "fac_id": 172}
{"pdb_fac_id": 365, "name": "NewTelco Kiev", "country": "UA", "city": "Kiev", "zipcode": "1033", "address": "Gaidara 501st Floor", "latitude": 50.551468, "longitude": 30.629527, "pdb_org_id": 635, "alternatenames": [], "sources": ["pdb"], "geo_id": 703448, "num_ixs": 18, "fac_id": 173}
{"pdb_fac_id": 367, "name": "INTERNIC Frankfurt", "country": "DE", "city": "Frankfurt", "zipcode": "60329", "address": "Wiesenh\u00fcttenplatz 26", "latitude": 50.105084, "longitude": 8.666501, "pdb_org_id": 639, "alternatenames": [], "sources": ["pdb"], "geo_id": 2925533, "num_ixs": 1, "fac_id": 174}
{"pdb_fac_id": 372, "name": "Network 222", "country": "US", "state": "WI", "city": "Madison", "zipcode": "53703", "address": "222 West Washington Avenue", "latitude": 43.073336, "longitude": -89.386996, "clli": "MDSNWI", "pdb_org_id": 647, "alternatenames": [], "sources": ["pdb"], "geo_id": 5261457, "num_ixs": 1, "fac_id": 175}
{"pdb_fac_id": 374, "name": "Iron Mountain Data Center - Amsterdam (AMS-1)", "country": "NL", "state": "NH", "city": "Amsterdam", "zipcode": "2031 BE", "address": "J.W. Lucasweg 35", "latitude": 52.391165, "longitude": 4.665267, "pdb_org_id": 8959, "alternatenames": [], "sources": ["pdb"], "geo_id": 2759794, "num_ixs": 8, "fac_id": 176}
{"pdb_fac_id": 375, "name": "Equinix AM1/AM2 - Amsterdam, Luttenbergweg", "country": "NL", "city": "Amsterdam", "zipcode": "1101 EC", "address": "Luttenbergweg 4", "latitude": 52.299929, "longitude": 4.943121, "clli": "AMSTNL", "pdb_org_id": 2, "alternatenames": [], "sources": ["pdb"], "geo_id": 2759794, "num_ixs": 9, "fac_id": 177}
{"pdb_fac_id": 376, "name": "Equinix ZW1 - Zwolle", "country": "NL", "city": "Zwolle", "zipcode": "8013RL", "address": "Telfordstraat 3", "latitude": 52.488492, "longitude": 6.142697, "pdb_org_id": 2, "alternatenames": [], "sources": ["pdb"], "geo_id": 2743477, "num_ixs": 1, "fac_id": 178}
{"pdb_fac_id": 382, "name": "TransACT Telehouse", "country": "AU", "state": "Australian Capital Territory", "city": "Canberra", "zipcode": "2602", "address": "470 Northbourne AveDickson", "latitude": -35.251849, "longitude": 149.133934, "pdb_org_id": 669, "alternatenames": [], "sources": ["pdb"], "geo_id": 2172517, "num_ixs": 3, "fac_id": 179}
{"pdb_fac_id": 388, "name": "Global Switch Singapore", "country": "SG", "city": "Singapore", "zipcode": "534408", "address": "2 Tai Seng AvenueSingapore 534408", "latitude": 1.336723, "longitude": 103.893828, "pdb_org_id": 77, "alternatenames": [], "sources": ["pdb"], "geo_id": 1880252, "num_ixs": 6, "fac_id": 180}
{"pdb_fac_id": 389, "name": "CoreSite - Denver (DE1)", "country": "US", "state": "CO", "city": "Denver", "zipcode": "80202", "address": "910 15th Street", "latitude": 39.745636, "longitude": -104.995636, "clli": "DNVRCO26", "pdb_org_id": 34, "alternatenames": [], "sources": ["pdb"], "geo_id": 5419384, "num_ixs": 2, "fac_id": 181}
{"pdb_fac_id": 390, "name": "CSS MPS Moscow", "country": "RU", "city": "Moscow", "address": "Kalanchevskaya str., 2/1", "latitude": 55.770625, "longitude": 37.652576, "pdb_org_id": 681, "alternatenames": [], "sources": ["pdb"], "geo_id": 524901, "num_ixs": 1, "fac_id": 182}
{"pdb_fac_id": 392, "name": "151 Front Street West Toronto", "country": "CA", "state": "ON", "city": "Toronto", "zipcode": "M5J 2N1", "address": "151 Front Street West", "latitude": 43.644672, "longitude": -79.384128, "pdb_org_id": 687, "alternatenames": [], "sources": ["pdb"], "geo_id": 6167865, "num_ixs": 4, "fac_id": 183}
{"pdb_fac_id": 393, "name": "HKCOLO - Sino Favour Centre", "country": "HK", "city": "Hong Kong", "address": "8/F,  1 On Yip StreetChaiwan", "latitude": 22.266947, "longitude": 114.246038, "pdb_org_id": 691, "alternatenames": [], "sources": ["pdb"], "geo_id": 1819729, "num_ixs": 1, "fac_id": 184}
{"pdb_fac_id": 397, "name": "WOW! Business (Tampa Datacenter)", "country": "US", "state": "FL", "city": "Tampa", "zipcode": "33602", "address": "400 N Tampa St.Suite #1000", "latitude": 27.947729, "longitude": -82.459331, "clli": "TAMQFL", "pdb_org_id": 6705, "alternatenames": [], "sources": ["pdb"], "geo_id": 4174757, "num_ixs": 1, "fac_id": 185}
{"pdb_fac_id": 398, "name": "Equinix LD3 - London, Park Royal", "country": "GB", "city": "London", "zipcode": "NW10 7PH", "address": "Matrix Unit 11, 900 Coronation RoadPark Royal", "latitude": 51.528788, "longitude": -0.27746, "clli": "LONDEN", "pdb_org_id": 2, "alternatenames": [], "sources": ["pdb"], "geo_id": 2643743, "num_ixs": 1, "fac_id": 186}
{"pdb_fac_id": 399, "name": "Equinix LD4 - London, Slough", "country": "GB", "city": "Slough", "zipcode": "SL1 4NB", "address": "2 Buckingham Avenue", "latitude": 51.523805, "longitude": -0.635545, "clli": "LONDEN", "pdb_org_id": 2, "alternatenames": [], "sources": ["pdb"], "geo_id": 2637627, "num_ixs": 6, "fac_id": 187}
{"pdb_fac_id": 402, "name": "Digital Realty DFW (2323 Bryan St)", "country": "US", "state": "TX", "city": "Dallas", "zipcode": "75201", "address": "2323 Bryan St.", "latitude": 32.787212, "longitude": -96.794219, "clli": "DLLSTX", "pdb_org_id": 8592, "alternatenames": [], "sources": ["pdb"], "geo_id": 4684888, "num_ixs": 4, "fac_id": 189}
{"pdb_fac_id": 403, "name": "Digital Realty LAX (600 W 7th)", "country": "US", "state": "CA", "city": "Los Angeles", "zipcode": "90017", "address": "600 West 7th Street", "latitude": 34.047335, "longitude": -118.25745, "clli": "LSANCA", "pdb_org_id": 8592, "alternatenames": [], "sources": ["pdb"], "geo_id": 5368361, "num_ixs": 1, "fac_id": 190}
{"pdb_fac_id": 406, "name": "euNetworks Amsterdam", "country": "NL", "city": "Amsterdam", "zipcode": "1096 BK", "address": "Paul van Vlissingenstraat 16", "latitude": 52.333407, "longitude": 4.919422, "pdb_org_id": 8540, "alternatenames": [], "sources": ["pdb"], "geo_id": 2759794, "num_ixs": 3, "fac_id": 191}
{"pdb_fac_id": 408, "name": "Digital Realty IAD (44480 Hastings)", "country": "US", "state": "VA", "city": "Ashburn", "zipcode": "20147", "address": "44480 Hastings Drive", "latitude": 39.017808, "longitude": -77.462489, "clli": "ASBNVA", "pdb_org_id": 8592, "alternatenames": [], "sources": ["pdb"], "geo_id": 4744870, "num_ixs": 2, "fac_id": 1832}
{"pdb_fac_id": 409, "name": "Netrality Houston - 1301 Fannin", "country": "US", "state": "TX", "city": "Houston", "zipcode": "77002", "address": "1301 Fannin - Netrality Data Center Meet Me Room1301 Fannin Street", "latitude": 29.753242, "longitude": -95.365882, "pdb_org_id": 13880, "alternatenames": [], "sources": ["pdb"], "geo_id": 4699066, "num_ixs": 6, "fac_id": 192}
{"pdb_fac_id": 410, "name": "KOMO Plaza Seattle (Formerly Fisher Plaza)", "country": "US", "state": "WA", "city": "Seattle", "zipcode": "98109", "address": "140 4th Ave N", "latitude": 47.619238, "longitude": -122.348278, "clli": "STTLWAJM", "pdb_org_id": 28929, "alternatenames": [], "sources": ["pdb"], "geo_id": 5809844, "num_ixs": 2, "fac_id": 193}
{"pdb_fac_id": 411, "name": "University of Wisconsin-Madison", "country": "US", "state": "WI", "city": "Madison", "zipcode": "53706", "address": "1210 W. Dayton Street", "latitude": 43.071309, "longitude": -89.406318, "clli": "MDSNWI", "pdb_org_id": 730, "alternatenames": [], "sources": ["pdb"], "geo_id": 5261457, "num_ixs": 1, "fac_id": 194}
{"pdb_fac_id": 413, "name": "Verizon HMG9 Oslo", "country": "NO", "city": "Oslo", "zipcode": "0598", "address": "Hans Moller Gasmansvei 9", "latitude": 59.938433, "longitude": 10.834971, "pdb_org_id": 1152, "alternatenames": [], "sources": ["pdb"], "geo_id": 3143244, "num_ixs": 1, "fac_id": 195}
{"pdb_fac_id": 419, "name": "Malm\u00f6/B", "country": "SE", "city": "Malm\u00f6", "address": "Limhamnsg\u00e5rdens All\u00e9 16Limhamn", "latitude": 55.571236, "longitude": 12.935775, "pdb_org_id": 749, "alternatenames": [], "sources": ["pdb"], "geo_id": 2692969, "num_ixs": 2, "fac_id": 196}
{"pdb_fac_id": 420, "name": "The Franklin Exchange Tampa", "country": "US", "state": "FL", "city": "Tampa", "zipcode": "33602", "address": "655 N Franklin Street", "latitude": 27.949606, "longitude": -82.458393, "pdb_org_id": 751, "alternatenames": [], "sources": ["pdb"], "geo_id": 4174757, "num_ixs": 1, "fac_id": 197}
{"pdb_fac_id": 421, "name": "BIT Datacenter Ede II", "country": "NL", "city": "Ede", "zipcode": "6716 BP", "address": "Galileilaan 19", "latitude": 52.027212, "longitude": 5.623903, "pdb_org_id": 171, "alternatenames": [], "sources": ["pdb"], "geo_id": 2756429, "num_ixs": 2, "fac_id": 198}
{"pdb_fac_id": 424, "name": "TTC TELEPORT DC1", "country": "CZ", "city": "Prague", "zipcode": "10000", "address": "Tiskarska 10", "latitude": 50.082018, "longitude": 14.53335, "pdb_org_id": 18675, "alternatenames": [], "sources": ["pdb"], "geo_id": 3067696, "num_ixs": 3, "fac_id": 199}
{"pdb_fac_id": 425, "name": "Academia Sinica Department of Information Technology Services (ITS) Taipei", "country": "TW", "city": "Taipei", "zipcode": "11529", "address": "Department of Information Technology Services128 Academia Road, Section 2, Nankang, Taipei, Taiwan ROC", "latitude": 25.042185, "longitude": 121.614548, "pdb_org_id": 761, "alternatenames": [], "sources": ["pdb"], "geo_id": 1668341, "num_ixs": 1, "fac_id": 200}
{"pdb_fac_id": 426, "name": "QTS Groningen (GRO1)", "country": "NL", "city": "Groningen", "zipcode": "9747 AA", "address": "Zernikelaan 16", "latitude": 53.246048, "longitude": 6.52852, "pdb_org_id": 13077, "alternatenames": [], "sources": ["pdb"], "geo_id": 2755251, "num_ixs": 4, "fac_id": 201}
{"pdb_fac_id": 427, "name": "Level(3) Hamburg", "country": "DE", "city": "Hamburg", "zipcode": "20537", "address": "S\u00fcderstrasse 198", "latitude": 53.54799, "longitude": 10.04365, "pdb_org_id": 682, "alternatenames": [], "sources": ["pdb"], "geo_id": 2911298, "num_ixs": 1, "fac_id": 202}
{"pdb_fac_id": 434, "name": "Gothnet DC Marieholm", "country": "SE", "city": "Gothenburg", "zipcode": "41502", "address": "Slakthusgatan 5D", "latitude": 57.731137, "longitude": 12.002845, "pdb_org_id": 27479, "alternatenames": [], "sources": ["pdb"], "geo_id": 2711537, "num_ixs": 5, "fac_id": 203}
{"pdb_fac_id": 435, "name": "Netrality Kansas City - 1102 Grand", "country": "US", "state": "MO", "city": "Kansas City", "zipcode": "64106", "address": "1102 Grand - Netrality Data Center Meet Me Room1102 Grand Boulevard", "latitude": 39.100941, "longitude": -94.581036, "pdb_org_id": 13880, "alternatenames": [], "sources": ["pdb"], "geo_id": 4393217, "num_ixs": 5, "fac_id": 204}
{"pdb_fac_id": 436, "name": "Equinix SV3 - Silicon Valley, San Jose", "country": "US", "state": "CA", "city": "San Jose", "zipcode": "95131", "address": "1735 Lundy Ave", "latitude": 37.388235, "longitude": -121.888457, "pdb_org_id": 2, "alternatenames": [], "sources": ["pdb"], "geo_id": 5392171, "num_ixs": 2, "fac_id": 205}
{"pdb_fac_id": 437, "name": "Equinix SV2 - Silicon Valley, Santa Clara", "country": "US", "state": "CA", "city": "Santa Clara", "zipcode": "95054", "address": "1350 Duane Ave", "latitude": 37.378463, "longitude": -121.954945, "pdb_org_id": 2, "alternatenames": [], "sources": ["pdb"], "geo_id": 5393015, "num_ixs": 2, "fac_id": 206}
{"pdb_fac_id": 439, "name": "NXDATA-1 Bucharest Romania (BU1)", "country": "RO", "city": "Bucharest", "zipcode": "020337", "address": "Bulevardul Dimitrie Pompeiu 8, Bucure\u0219ti", "latitude": 44.48049, "longitude": 26.117669, "clli": "BUCHRO", "pdb_org_id": 785, "alternatenames": [], "sources": ["pdb"], "geo_id": 683506, "num_ixs": 5, "fac_id": 207}
{"pdb_fac_id": 440, "name": "CoreSite - Chicago (CH1)", "country": "US", "state": "IL", "city": "Chicago", "zipcode": "60605", "address": "427 S. LaSalle", "latitude": 41.876212, "longitude": -87.631453, "clli": "CHCGILWU", "pdb_org_id": 34, "alternatenames": [], "sources": ["pdb"], "geo_id": 4887398, "num_ixs": 4, "fac_id": 208}
{"pdb_fac_id": 444, "name": "noris network datacenter.de NBG3 / NBG4", "country": "DE", "state": "Bavaria", "city": "N\u00fcrnberg", "zipcode": "90429", "address": "Deutschherrnstra\u00dfe 15-19", "latitude": 49.45341, "longitude": 11.06364, "pdb_org_id": 794, "alternatenames": [], "sources": ["pdb"], "geo_id": 2861650, "num_ixs": 1, "fac_id": 209}
{"pdb_fac_id": 445, "name": "CarrierColo Berlin Luetzow (I/P/B/ site B)", "country": "DE", "city": "Berlin", "zipcode": "10785", "address": "L\u00fctzowstrasse 105/106", "latitude": 52.50192, "longitude": 13.36945, "pdb_org_id": 797, "alternatenames": [], "sources": ["pdb"], "geo_id": 2950159, "num_ixs": 7, "fac_id": 210}
{"pdb_fac_id": 446, "name": "LightBound IND1", "country": "US", "state": "IN", "city": "Indianapolis", "zipcode": "46205", "address": "731 West Henry StSuite 200", "latitude": 39.759366, "longitude": -86.171857, "clli": "IPLXINIF", "pdb_org_id": 799, "alternatenames": [], "sources": ["pdb"], "geo_id": 4259418, "num_ixs": 1, "fac_id": 211}
{"pdb_fac_id": 449, "name": "CERN Geneva", "country": "CH", "city": "Meyrin", "zipcode": "1217", "address": "1, Esplanade des Particules", "latitude": 46.232973, "longitude": 6.055572, "pdb_org_id": 2670, "alternatenames": [], "sources": ["pdb"], "geo_id": 2659667, "num_ixs": 1, "fac_id": 212}
{"pdb_fac_id": 450, "name": "Interxion Almere ALM1", "country": "NL", "city": "Almere", "zipcode": "1316 BM", "address": "Randstad 22-153", "latitude": 52.377538, "longitude": 5.226435, "pdb_org_id": 8478, "alternatenames": [], "sources": ["pdb"], "geo_id": 2759879, "num_ixs": 1, "fac_id": 213}
{"pdb_fac_id": 452, "name": "Equinix TY2 - Tokyo", "country": "JP", "city": "Tokyo", "zipcode": "140-0002", "address": "3-8-21 Higashi-ShinagawaShinagawa", "latitude": 35.617432, "longitude": 139.748106, "pdb_org_id": 2, "alternatenames": [], "sources": ["pdb"], "geo_id": 1850147, "num_ixs": 9, "fac_id": 214}
{"pdb_fac_id": 453, "name": "ITENOS Berlin", "country": "DE", "state": "Berlin", "city": "Berlin", "zipcode": "10785", "address": "L\u00fctzowstrasse 105/106", "latitude": 52.50202, "longitude": 13.36934, "pdb_org_id": 98, "alternatenames": [], "sources": ["pdb"], "geo_id": 2950159, "fac_id": 215}
{"pdb_fac_id": 454, "name": "DNS:NET Colo I Berlin", "country": "DE", "city": "Berlin", "zipcode": "10785", "address": "L\u00fctzowstrasse 105/106", "latitude": 52.50192, "longitude": 13.36945, "pdb_org_id": 1348, "alternatenames": [], "sources": ["pdb"], "geo_id": 2950159, "num_ixs": 2, "fac_id": 216}
{"pdb_fac_id": 456, "name": "Chief LY Building Taipei", "country": "TW", "city": "Taipei", "zipcode": "11491", "address": "No. 250, Yang-Guang Street, Nei-hu District", "latitude": 25.073467, "longitude": 121.577519, "pdb_org_id": 8554, "alternatenames": [], "sources": ["pdb"], "geo_id": 1668341, "num_ixs": 4, "fac_id": 217}
{"pdb_fac_id": 457, "name": "Equinix FR2 - Frankfurt, North", "country": "DE", "city": "Frankfurt", "zipcode": "60388", "address": "Kruppstrasse 121-127", "latitude": 50.141895, "longitude": 8.741764, "clli": "FRNKGE", "pdb_org_id": 2, "alternatenames": [], "sources": ["pdb"], "geo_id": 2925533, "num_ixs": 5, "fac_id": 218}
{"pdb_fac_id": 458, "name": "FCCN Lisbon - SE03", "country": "PT", "state": "Lisbon", "city": "Lisbon", "zipcode": "1700-066", "address": "Avenida do Brasil, 101Manuel Rocha Building, 1st Floor", "latitude": 38.756444, "longitude": -9.146581, "pdb_org_id": 826, "alternatenames": [], "sources": ["pdb"], "geo_id": 2267057, "num_ixs": 2, "fac_id": 219}
{"pdb_fac_id": 460, "name": "AIMS Kuala Lumpur", "country": "MY", "state": "Wilayah Persekutuan", "city": "Kuala Lumpur", "zipcode": "50200", "address": "Ground Floor, Menara AIMSChangkat Raja Chulan", "latitude": 3.14969, "longitude": 101.70634, "pdb_org_id": 12427, "alternatenames": [], "sources": ["pdb"], "geo_id": 1735161, "num_ixs": 6, "fac_id": 220}
{"pdb_fac_id": 462, "name": "LIM Warsaw", "country": "PL", "city": "Warsaw", "zipcode": "00-697", "address": "Al. Jerozolimskie 65/79", "latitude": 52.227718, "longitude": 21.005015, "pdb_org_id": 34999, "alternatenames": [], "sources": ["pdb"], "geo_id": 756135, "num_ixs": 7, "fac_id": 221}
{"pdb_fac_id": 464, "name": "euNetworks Colocation Berlin", "country": "DE", "city": "Berlin", "zipcode": "12103", "address": "Alboinstrasse 36-42Alboin-Kontor", "pdb_org_id": 8540, "alternatenames": [], "sources": ["pdb"], "geo_id": 2950159, "num_ixs": 2, "fac_id": 222}
{"pdb_fac_id": 465, "name": "Sitel Bratislava", "country": "SK", "city": "Bratislava", "zipcode": "851 01", "address": "Kop\u010dianska 20/c", "latitude": 48.118746, "longitude": 17.095572, "pdb_org_id": 840, "alternatenames": [], "sources": ["pdb"], "geo_id": 3060972, "num_ixs": 3, "fac_id": 223}
{"pdb_fac_id": 466, "name": "Digital Realty CHI (350 E Cermak)", "country": "US", "state": "IL", "city": "Chicago", "zipcode": "60616-1568", "address": "350 E Cermak Rd.", "latitude": 41.85365, "longitude": -87.618342, "clli": "CHCGIL", "pdb_org_id": 8592, "alternatenames": [], "sources": ["pdb"], "geo_id": 4887398, "num_ixs": 7, "fac_id": 224}
{"pdb_fac_id": 473, "name": "Core-Backbone NBG1", "country": "DE", "state": "Bavaria", "city": "Nuremberg", "zipcode": "90429", "address": "Deutschherrnstr. 15-19", "latitude": 49.45341, "longitude": 11.06364, "pdb_org_id": 849, "alternatenames": [], "sources": ["pdb"], "geo_id": 2861650, "num_ixs": 1, "fac_id": 226}
{"pdb_fac_id": 474, "name": "GAP Union Station", "country": "US", "state": "IN", "city": "South Bend", "zipcode": "46601", "address": "506 W South St.", "latitude": 41.669526, "longitude": -86.255805, "pdb_org_id": 851, "alternatenames": [], "sources": ["pdb"], "geo_id": 4926563, "num_ixs": 1, "fac_id": 1283}
{"pdb_fac_id": 477, "name": "Nepustil Stuttgart Zettachring 10a", "country": "DE", "state": "BW", "city": "Stuttgart", "zipcode": "70567", "address": "Zettachring 10a", "latitude": 48.70899, "longitude": 9.17098, "pdb_org_id": 6752, "alternatenames": [], "sources": ["pdb"], "geo_id": 2825297, "num_ixs": 1, "fac_id": 227}
{"pdb_fac_id": 478, "name": "NTT Berlin 1 Data Center (BER1)", "country": "DE", "city": "Berlin", "zipcode": "13599", "address": "Nonnendammallee 15", "latitude": 52.538479, "longitude": 13.237136, "pdb_org_id": 491, "alternatenames": [], "sources": ["pdb"], "geo_id": 2950159, "num_ixs": 4, "fac_id": 228}
{"pdb_fac_id": 480, "name": "Equinix MU1/MU3 - Munich", "country": "DE", "city": "Munich", "zipcode": "80335", "address": "Seidlstrasse 3", "latitude": 48.143056, "longitude": 11.55584, "pdb_org_id": 2, "alternatenames": [], "sources": ["pdb"], "geo_id": 2867714, "num_ixs": 3, "fac_id": 229}
{"pdb_fac_id": 484, "name": "Malm\u00f6 V\u00e4stergatan 4 / Stortorget", "country": "SE", "city": "Malm\u00f6", "address": "V\u00e4stergatan 4", "latitude": 55.606818, "longitude": 12.998449, "pdb_org_id": 864, "alternatenames": [], "sources": ["pdb"], "geo_id": 2692969, "num_ixs": 4, "fac_id": 230}
{"pdb_fac_id": 488, "name": "Ucomline Kiev", "country": "UA", "city": "Kiev", "address": "Leontovicha 9Building 3", "latitude": 50.445102, "longitude": 30.510193, "pdb_org_id": 868, "alternatenames": [], "sources": ["pdb"], "geo_id": 703448, "num_ixs": 8, "fac_id": 231}
{"pdb_fac_id": 489, "name": "Moscow M10", "country": "RU", "city": "Moscow", "address": "Suschevskiy val 26", "latitude": 55.792351, "longitude": 37.607766, "pdb_org_id": 870, "alternatenames": [], "sources": ["pdb"], "geo_id": 524901, "num_ixs": 1, "fac_id": 232}
{"pdb_fac_id": 490, "name": "Moscow CSS MPS", "country": "RU", "city": "Moscow", "zipcode": "107078", "address": "Kalanchevskaya ul. 2", "latitude": 55.771098, "longitude": 37.652226, "pdb_org_id": 872, "alternatenames": [], "sources": ["pdb"], "geo_id": 524901, "num_ixs": 1, "fac_id": 233}
{"pdb_fac_id": 494, "name": "Digital Realty Amsterdam AMS18", "country": "NL", "city": "Amsterdam", "zipcode": "1096 AM", "address": "Amstel Business ParkH.J.E. Wenckebachweg 127", "latitude": 52.332165, "longitude": 4.923265, "pdb_org_id": 8592, "alternatenames": [], "sources": ["pdb"], "geo_id": 2759794, "num_ixs": 2, "fac_id": 234}
{"pdb_fac_id": 500, "name": "TierPoint Spokane", "country": "US", "state": "WA", "city": "Liberty Lake", "zipcode": "99019", "address": "23403 E Mission Ave", "latitude": 47.671879, "longitude": -117.09123, "pdb_org_id": 882, "alternatenames": [], "sources": ["pdb"], "geo_id": 5800870, "num_ixs": 2, "fac_id": 235}
{"pdb_fac_id": 501, "name": "US Bank Building", "country": "US", "state": "WA", "city": "Spokane", "zipcode": "99201", "address": "428 West Riverside", "latitude": 47.658139, "longitude": -117.4193, "pdb_org_id": 884, "alternatenames": [], "sources": ["pdb"], "geo_id": 5811696, "num_ixs": 1, "fac_id": 236}
{"pdb_fac_id": 505, "name": "Equinix DA - Dallas (previously Infomart Dallas)", "country": "US", "state": "TX", "city": "Dallas", "zipcode": "75207-3134", "address": "1950 N Stemmons Fwy", "latitude": 32.800748, "longitude": -96.819412, "pdb_org_id": 2, "alternatenames": [], "sources": ["pdb"], "geo_id": 4684888, "num_ixs": 2, "fac_id": 237}
{"pdb_fac_id": 507, "name": "324 E Wisconsin", "country": "US", "state": "WI", "city": "Milwaukee", "zipcode": "53202", "address": "324 E. Wisconsin Ave", "latitude": 43.039016, "longitude": -87.906937, "clli": "MILWWI", "pdb_org_id": 22302, "alternatenames": [], "sources": ["pdb"], "geo_id": 5263045, "num_ixs": 1, "fac_id": 238}
{"pdb_fac_id": 508, "name": "TSUA", "country": "UA", "city": "Kiev", "zipcode": "01030", "address": "Leontovicha 9, building 3, flour 3", "latitude": 50.445241, "longitude": 30.509689, "pdb_org_id": 895, "alternatenames": [], "sources": ["pdb"], "geo_id": 703448, "num_ixs": 2, "fac_id": 239}
{"pdb_fac_id": 509, "name": "Equinix WA1 - Warsaw, Centrum LIM", "country": "PL", "state": "Masovian Voivodeship", "city": "Warsaw", "zipcode": "00 697", "address": "65/79 al. Jerozolimskie", "latitude": 52.227354, "longitude": 21.003357, "pdb_org_id": 2, "alternatenames": [], "sources": ["pdb"], "geo_id": 756135, "num_ixs": 10, "fac_id": 240}
{"pdb_fac_id": 510, "name": "Equinix SV6 - Silicon Valley, Sunnyvale", "country": "US", "state": "Ca", "city": "Sunnyvale", "zipcode": "94089", "address": "444 Toyama Dr", "latitude": 37.399589, "longitude": -122.014572, "clli": "SNVBCA", "pdb_org_id": 2, "alternatenames": [], "sources": ["pdb"], "geo_id": 5400075, "num_ixs": 2, "fac_id": 241}
{"pdb_fac_id": 517, "name": "Core-Backbone NBG2", "country": "DE", "state": "Bavaria", "city": "Nuremberg", "zipcode": "90429", "address": "Deutschherrnstr. 15-19", "latitude": 49.45341, "longitude": 11.06364, "pdb_org_id": 849, "alternatenames": [], "sources": ["pdb"], "geo_id": 2861650, "num_ixs": 1, "fac_id": 242}
{"pdb_fac_id": 518, "name": "Core-Backbone NBG3", "country": "DE", "state": "Bavaria", "city": "Nuremberg", "zipcode": "90429", "address": "Deutschherrnstr. 15-19", "latitude": 49.45341, "longitude": 11.06364, "pdb_org_id": 849, "alternatenames": [], "sources": ["pdb"], "geo_id": 2861650, "num_ixs": 1, "fac_id": 243}
{"pdb_fac_id": 519, "name": "Lumen Boston", "country": "US", "state": "MA", "city": "Cambridge", "zipcode": "02141", "address": "300 Bent St.", "latitude": 42.367691, "longitude": -71.086779, "clli": "CMBRMAOR", "pdb_org_id": 682, "alternatenames": [], "sources": ["pdb"], "geo_id": 4931972, "num_ixs": 1, "fac_id": 244}
{"pdb_fac_id": 524, "name": "Dataplace Nedzone", "country": "NL", "state": "NL", "city": "Steenbergen", "zipcode": "4651 SL", "address": "Drukkerij 6", "latitude": 51.587535, "longitude": 4.305055, "pdb_org_id": 6063, "alternatenames": [], "sources": ["pdb"], "geo_id": 2746804, "num_ixs": 2, "fac_id": 245}
{"pdb_fac_id": 525, "name": "180 E Broad St.", "country": "US", "state": "OH", "city": "Columbus", "zipcode": "43215-3707", "address": "Meet-Me-Room180 E Broad St", "latitude": 39.963183, "longitude": -82.995994, "pdb_org_id": 918, "alternatenames": [], "sources": ["pdb"], "geo_id": 4509177, "num_ixs": 1, "fac_id": 246}
{"pdb_fac_id": 531, "name": "Iron Mountain Data Center - Scottsdale (AZS-1)", "country": "US", "state": "AZ", "city": "Scottsdale", "zipcode": "85255", "address": "8521 E. Princess Drive", "latitude": 33.64465, "longitude": -111.895495, "pdb_org_id": 8959, "alternatenames": [], "sources": ["pdb"], "geo_id": 5313457, "num_ixs": 1, "fac_id": 1621}
{"pdb_fac_id": 534, "name": "Equinix LD9 - London, Powergate", "country": "GB", "city": "London", "zipcode": "NW10 6PW", "address": "Unit 1, Powergate Business ParkVolt Avenue", "latitude": 51.530547, "longitude": -0.257425, "clli": "LONDEN", "pdb_org_id": 2, "alternatenames": [], "sources": ["pdb"], "geo_id": 2643743, "num_ixs": 4, "fac_id": 248}
{"pdb_fac_id": 536, "name": "UNI-C", "country": "DK", "city": "Lyngby", "zipcode": "2800", "address": "DTU building 304", "latitude": 55.784385, "longitude": 12.519543, "pdb_org_id": 934, "alternatenames": [], "sources": ["pdb"], "geo_id": 2618468, "fac_id": 249}
{"pdb_fac_id": 537, "name": "Cogent Strasbourg", "country": "FR", "city": "Schiltigheim", "zipcode": "67300", "address": "46 route de Bischwiller", "latitude": 48.60056, "longitude": 7.744168, "pdb_org_id": 365, "alternatenames": [], "sources": ["pdb"], "geo_id": 2975446, "num_ixs": 2, "fac_id": 1284}
{"pdb_fac_id": 539, "name": "Equinix DA4 - Dallas", "country": "US", "state": "TX", "city": "Dallas", "zipcode": "75201", "address": "2323 Bryan St.", "latitude": 32.787212, "longitude": -96.794219, "clli": "DLLSTX", "pdb_org_id": 2, "alternatenames": [], "sources": ["pdb"], "geo_id": 4684888, "num_ixs": 3, "fac_id": 250}
{"pdb_fac_id": 540, "name": "Equinix NY8 - New York, 60 Hudson", "country": "US", "state": "NY", "city": "New York", "zipcode": "10013", "address": "60 Hudson Street", "latitude": 40.717723, "longitude": -74.008299, "clli": "NYCMNY", "pdb_org_id": 2, "alternatenames": [], "sources": ["pdb"], "geo_id": 5128581, "num_ixs": 2, "fac_id": 251}
{"pdb_fac_id": 542, "name": "Equinix NY7 - New York, North Bergen", "country": "US", "state": "NJ", "city": "North Bergen", "zipcode": "07047", "address": "5851 Westside Ave", "latitude": 40.796857, "longitude": -74.031129, "clli": "NBRGNJ", "pdb_org_id": 2, "alternatenames": [], "sources": ["pdb"], "geo_id": 5101879, "num_ixs": 2, "fac_id": 252}
{"pdb_fac_id": 547, "name": "Hurricane Electric Fremont 2", "country": "US", "state": "CA", "city": "Fremont", "zipcode": "94539-7654", "address": "48233 Warm Springs Blvd", "latitude": 37.471809, "longitude": -121.920111, "clli": "FRMTCA", "pdb_org_id": 396, "alternatenames": [], "sources": ["pdb"], "geo_id": 5350734, "num_ixs": 11, "fac_id": 253}
{"pdb_fac_id": 552, "name": "TATA Communications Chennai", "country": "IN", "state": "TN", "city": "Chennai", "zipcode": "600 002", "address": "4th floor, 2nd block4, Swami Sivanand Salai", "pdb_org_id": 581, "alternatenames": [], "sources": ["pdb"], "geo_id": 1264527, "num_ixs": 3, "fac_id": 254}
{"pdb_fac_id": 554, "name": "TATA Communications Mumbai", "country": "IN", "state": "MH", "city": "Mumbai", "zipcode": "400 028", "address": "Kashinath Dhuru MargPrabahdevi", "latitude": 19.020332, "longitude": 72.83155, "pdb_org_id": 581, "alternatenames": [], "sources": ["pdb"], "geo_id": 1275339, "num_ixs": 2, "fac_id": 255}
{"pdb_fac_id": 555, "name": "CINECA - DC NaMeX", "country": "IT", "city": "Roma", "zipcode": "00185", "address": "Via dei Tizi 6/b", "latitude": 41.898919, "longitude": 12.512156, "pdb_org_id": 956, "alternatenames": [], "sources": ["pdb"], "geo_id": 3169070, "num_ixs": 3, "fac_id": 256}
{"pdb_fac_id": 558, "name": "Equinix MI2 - Miami", "country": "US", "state": "FL", "city": "Miami", "zipcode": "33132-2113", "address": "36 NE 2nd St", "latitude": 25.775869, "longitude": -80.19313, "clli": "MIAUFL", "pdb_org_id": 2, "alternatenames": [], "sources": ["pdb"], "geo_id": 4164138, "num_ixs": 2, "fac_id": 257}
{"pdb_fac_id": 560, "name": "365 Data Centers Boca Raton (BC1)", "country": "US", "state": "FL", "city": "Boca Raton", "zipcode": "33431", "address": "3500 NW Boca Raton Blvd.Buildings 800 & 900", "pdb_org_id": 9314, "alternatenames": [], "sources": ["pdb"], "geo_id": 4148411, "num_ixs": 1, "fac_id": 258}
{"pdb_fac_id": 561, "name": "365 Data Centers Nashville (NA1)", "country": "US", "state": "TN", "city": "Nashville", "zipcode": "37219", "address": "147 Fourth Avenue8th Floor", "latitude": 36.162626, "longitude": -86.778674, "pdb_org_id": 9314, "alternatenames": [], "sources": ["pdb"], "geo_id": 4644585, "num_ixs": 1, "fac_id": 259}
{"pdb_fac_id": 562, "name": "55 Marietta", "country": "US", "state": "GA", "city": "Atlanta", "zipcode": "30303", "address": "55 Marietta St. NW", "latitude": 33.755807, "longitude": -84.391066, "clli": "ATLNGA", "pdb_org_id": 31696, "alternatenames": [], "sources": ["pdb"], "geo_id": 4180439, "num_ixs": 1, "fac_id": 260}
{"pdb_fac_id": 568, "name": "Vocus Perth PER01", "country": "AU", "state": "WA", "city": "Perth", "zipcode": "6000", "address": "1 William StPerth WA 6000", "latitude": -31.955572, "longitude": 115.855457, "pdb_org_id": 1705, "alternatenames": [], "sources": ["pdb"], "geo_id": 2063523, "num_ixs": 3, "fac_id": 261}
{"pdb_fac_id": 569, "name": "Epsilon Global Hubs New York (60 Hudson)", "country": "US", "state": "NY", "city": "New York", "zipcode": "10013", "address": "60 Hudson StSuite 1001", "latitude": 40.717664, "longitude": -74.008333, "pdb_org_id": 9411, "alternatenames": [], "sources": ["pdb"], "geo_id": 5128581, "num_ixs": 3, "fac_id": 262}
{"pdb_fac_id": 572, "name": "Iron Mountain Data Center - Phoenix (AZP-1)", "country": "US", "state": "AZ", "city": "Phoenix", "zipcode": "85008", "address": "615 N. 48th Street", "latitude": 33.454411, "longitude": -111.976435, "clli": "PHNHAZ", "pdb_org_id": 8959, "alternatenames": [], "sources": ["pdb"], "geo_id": 5308655, "num_ixs": 3, "fac_id": 263}
{"pdb_fac_id": 574, "name": "Equinix SV4 - Silicon Valley, Sunnyvale", "country": "US", "state": "CA", "city": "Sunnyvale", "zipcode": "94089", "address": "255 Caspian Dr", "latitude": 37.41438, "longitude": -122.014482, "clli": "SNVBCA", "pdb_org_id": 2, "alternatenames": [], "sources": ["pdb"], "geo_id": 5400075, "num_ixs": 2, "fac_id": 264}
{"pdb_fac_id": 575, "name": "1623 Farnam", "country": "US", "state": "NE", "city": "Omaha", "zipcode": "68102", "address": "1623 Farnam St.", "latitude": 41.257352, "longitude": -95.938191, "clli": "OMAHNE", "pdb_org_id": 8638, "alternatenames": [], "sources": ["pdb"], "geo_id": 5074472, "num_ixs": 1, "fac_id": 265}
{"pdb_fac_id": 577, "name": "Sky Tower", "country": "NZ", "city": "Auckland", "zipcode": "1010", "address": "Level 47/48Cnr Victoria and Federal Ave", "pdb_org_id": 991, "alternatenames": [], "sources": ["pdb"], "geo_id": 2193733, "num_ixs": 1, "fac_id": 266}
{"pdb_fac_id": 578, "name": "QTS Santa Clara (SJC1/SJC2)", "country": "US", "state": "CA", "city": "Santa Clara", "zipcode": "95054", "address": "2807 Mission College Blvd", "latitude": 37.394031, "longitude": -121.978279, "clli": "SNTCCA", "pdb_org_id": 13077, "alternatenames": [], "sources": ["pdb"], "geo_id": 5393015, "num_ixs": 1, "fac_id": 267}
{"pdb_fac_id": 580, "name": "QTS Atlanta-Suwanee (SUW1)", "country": "US", "state": "GA", "city": "Suwanee", "zipcode": "30024", "address": "300 Satellite Blvd NW", "latitude": 34.035431, "longitude": -84.06101, "pdb_org_id": 13077, "alternatenames": [], "sources": ["pdb"], "geo_id": 4225309, "num_ixs": 1, "fac_id": 268}
{"pdb_fac_id": 581, "name": "QTS Atlanta-Metro (ATL1)", "country": "US", "state": "GA", "city": "Atlanta", "zipcode": "30318", "address": "1033 Jefferson St. NW", "latitude": 33.777526, "longitude": -84.421036, "clli": "ATLNGA", "pdb_org_id": 13077, "alternatenames": [], "sources": ["pdb"], "geo_id": 4180439, "num_ixs": 1, "fac_id": 269}
{"pdb_fac_id": 582, "name": "QTS Miami (MIA1)", "country": "US", "state": "FL", "city": "Miami", "zipcode": "33172", "address": "11234 NW 20th St", "latitude": 25.791541, "longitude": -80.379598, "clli": "MIASFL", "pdb_org_id": 13077, "alternatenames": [], "sources": ["pdb"], "geo_id": 4164138, "num_ixs": 1, "fac_id": 270}
{"pdb_fac_id": 584, "name": "CoreSite - Boston (BO1)", "country": "US", "state": "MA", "city": "Somerville", "zipcode": "02143", "address": "70 Innerbelt Rd", "latitude": 42.376703, "longitude": -71.079763, "clli": "SOVLMAAB", "pdb_org_id": 34, "alternatenames": [], "sources": ["pdb"], "geo_id": 4951257, "num_ixs": 2, "fac_id": 271}
{"pdb_fac_id": 585, "name": "1025Connect", "country": "US", "state": "NY", "city": "Westbury", "zipcode": "11590", "address": "1025 Old Country Road", "latitude": 40.7558, "longitude": -73.557923, "pdb_org_id": 9226, "alternatenames": [], "sources": ["pdb"], "geo_id": 5144040, "num_ixs": 2, "fac_id": 272}
{"pdb_fac_id": 590, "name": "Intergate West / Digital.forest / Fortress", "country": "US", "state": "WA", "city": "Tukwila", "zipcode": "98168", "address": "12101 Tukwila International Blvd.", "latitude": 47.494136, "longitude": -122.29441, "pdb_org_id": 8591, "alternatenames": [], "sources": ["pdb"], "geo_id": 5814043, "num_ixs": 2, "fac_id": 273}
{"pdb_fac_id": 598, "name": "NTT DATA Otemachi Bldg", "country": "JP", "city": "Tokyo", "address": "NTT DATA Otemachi BldgOtemachi 2-2-2 Chiyoda-ku", "latitude": 35.686087, "longitude": 139.76791, "pdb_org_id": 18350, "alternatenames": [], "sources": ["pdb"], "geo_id": 1850147, "num_ixs": 5, "fac_id": 274}
{"pdb_fac_id": 599, "name": "Digital Edge TYO2 (ComSpace 1) - Tokyo", "country": "JP", "city": "Tokyo", "zipcode": "103-0012", "address": "ComSpace Bldg.", "latitude": 35.687467, "longitude": 139.779481, "pdb_org_id": 29677, "alternatenames": [], "sources": ["pdb"], "geo_id": 1850147, "num_ixs": 5, "fac_id": 275}
{"pdb_fac_id": 600, "name": "Shin Nikko Bldg", "country": "JP", "city": "Tokyo", "address": "Shin Nikko Bldg2-10-1 Toranomon, Minato-ku", "pdb_org_id": 1026, "alternatenames": [], "sources": ["pdb"], "geo_id": 1850147, "fac_id": 276}
{"pdb_fac_id": 601, "name": "Teledata Manchester - Delta House", "country": "GB", "city": "Manchester", "zipcode": "M22 5QZ", "address": "Delta HouseWavell Road", "latitude": 53.37912, "longitude": -2.258538, "pdb_org_id": 2455, "alternatenames": [], "sources": ["pdb"], "geo_id": 2643123, "num_ixs": 1, "fac_id": 277}
{"pdb_fac_id": 603, "name": "Lumen Frankfurt 2", "country": "DE", "city": "Frankfurt", "zipcode": "60326", "address": "Kleyerstrasse 82", "latitude": 50.1003, "longitude": 8.63461, "clli": "FRNKGEKR", "pdb_org_id": 682, "alternatenames": [], "sources": ["pdb"], "geo_id": 2925533, "fac_id": 278}
{"pdb_fac_id": 604, "name": "FiberNet Telecom Group Newark - 165 Halsey", "country": "US", "state": "NJ", "city": "Newark", "zipcode": "07102", "address": "165 Halsey Street", "latitude": 40.736844, "longitude": -74.173402, "clli": "NWRKNJ", "pdb_org_id": 308, "alternatenames": [], "sources": ["pdb"], "geo_id": 5101798, "num_ixs": 1, "fac_id": 279}
{"pdb_fac_id": 605, "name": "365 Data Centers Ft. Lauderdale (FLL)", "country": "US", "state": "FL", "city": "Ft. Lauderdale", "zipcode": "33309", "address": "3250 West Commercial Blvd", "latitude": 26.184971, "longitude": -80.190819, "pdb_org_id": 9314, "alternatenames": [], "sources": ["pdb"], "geo_id": 4155966, "num_ixs": 1, "fac_id": 280}
{"pdb_fac_id": 609, "name": "CS LoxInfo Data Center - CW Tower", "country": "TH", "city": "Bangkok", "zipcode": "10310", "address": "Cyber World Tower A90 Ratchadapisek Rd., Huaykwang, Huaykwang", "latitude": 13.769684, "longitude": 100.573655, "pdb_org_id": 18878, "alternatenames": [], "sources": ["pdb"], "geo_id": 1609350, "num_ixs": 2, "fac_id": 281}
{"pdb_fac_id": 613, "name": "Evoque_PHX1 - Mesa", "country": "US", "state": "AZ", "city": "Mesa", "zipcode": "85201", "address": "1301 West University Drive", "latitude": 33.421225, "longitude": -111.858984, "clli": "MESAAZLB", "pdb_org_id": 22690, "alternatenames": [], "sources": ["pdb"], "geo_id": 5304391, "num_ixs": 1, "fac_id": 1622}
{"pdb_fac_id": 614, "name": "Hutchinson HK", "country": "HK", "state": "HK", "city": "Quarry Bay", "pdb_org_id": 1044, "alternatenames": [], "sources": ["pdb"], "geo_id": 1819064, "num_ixs": 1, "fac_id": 282}
{"pdb_fac_id": 617, "name": "Euclyde DC1-Antibes", "country": "FR", "city": "Antibes", "zipcode": "06600", "address": "49 rue Emile HuguesSophia Antipolis", "latitude": 43.604752, "longitude": 7.075697, "pdb_org_id": 34202, "alternatenames": [], "sources": ["pdb"], "geo_id": 3037456, "num_ixs": 1, "fac_id": 1285}
{"pdb_fac_id": 619, "name": "Colo at 55, LLC", "country": "US", "state": "GA", "city": "Atlanta", "zipcode": "30303", "address": "55 Marietta ST NWSuite 2100", "latitude": 33.755807, "longitude": -84.391066, "pdb_org_id": 1054, "alternatenames": [], "sources": ["pdb"], "geo_id": 4180439, "num_ixs": 1, "fac_id": 1781}
{"pdb_fac_id": 620, "name": "CIX", "country": "IE", "city": "Cork", "zipcode": "T23 R68N", "address": "Hollyhill Industrial EstateHollyhill", "pdb_org_id": 18610, "alternatenames": [], "sources": ["pdb"], "geo_id": 2965140, "num_ixs": 1, "fac_id": 283}
{"pdb_fac_id": 628, "name": "Cogent Rouen", "country": "FR", "city": "Rouen", "zipcode": "76000", "address": "19 Rue Alexandre Barab\u00e9", "latitude": 49.428736, "longitude": 1.076366, "pdb_org_id": 365, "alternatenames": [], "sources": ["pdb"], "geo_id": 2982652, "num_ixs": 1, "fac_id": 1286}
{"pdb_fac_id": 629, "name": "Airwire DC Galway", "country": "IE", "city": "Galway", "address": "Lyrr Building, Phase 3Mervue Industrial Estate", "pdb_org_id": 1067, "alternatenames": [], "sources": ["pdb"], "geo_id": 2964180, "num_ixs": 1, "fac_id": 284}
{"pdb_fac_id": 636, "name": "Telehouse - Paris 3 (Magny)", "country": "FR", "city": "Magny-les-Hameaux", "zipcode": "78114", "address": "1 Rue Pablo Picasso", "latitude": 48.726927, "longitude": 2.081473, "clli": "PARSFR", "pdb_org_id": 7, "alternatenames": [], "sources": ["pdb"], "geo_id": 2996752, "num_ixs": 1, "fac_id": 285}
{"pdb_fac_id": 640, "name": "zugernet", "country": "CH", "state": "ZG", "city": "Baar", "zipcode": "6340", "address": "Industriestrasse 13a", "latitude": 47.172239, "longitude": 8.51809, "pdb_org_id": 1076, "alternatenames": [], "sources": ["pdb"], "geo_id": 2661653, "num_ixs": 1, "fac_id": 286}
{"pdb_fac_id": 641, "name": "3 Habour View, Philipsburg", "country": "SX", "city": "Sint Maarten", "address": "Habour View Corporate Park", "pdb_org_id": 1079, "alternatenames": [], "sources": ["pdb"], "num_ixs": 1, "fac_id": 287}
{"pdb_fac_id": 643, "name": "Colo4Dallas", "country": "US", "state": "TX", "city": "Dallas", "zipcode": "75247", "address": "3000 Irving Blvd.", "latitude": 32.807888, "longitude": -96.857296, "pdb_org_id": 1083, "alternatenames": [], "sources": ["pdb"], "geo_id": 4684888, "num_ixs": 1, "fac_id": 1287}
{"pdb_fac_id": 644, "name": "EXA Datacenter Gent (Merelbeke)", "country": "BE", "state": "Oost-Vlaanderen", "city": "Merelbeke", "zipcode": "9820", "address": "Industriepark 2H", "latitude": 50.987659, "longitude": 3.767603, "pdb_org_id": 31498, "alternatenames": [], "sources": ["pdb"], "geo_id": 2791315, "num_ixs": 1, "fac_id": 288}
{"pdb_fac_id": 646, "name": "EXA Edge DC Milan", "country": "IT", "state": "MI", "city": "Milan", "zipcode": "20153", "address": "Via Caldera 21", "latitude": 45.478016, "longitude": 9.101828, "pdb_org_id": 31498, "alternatenames": [], "sources": ["pdb"], "geo_id": 3173435, "num_ixs": 1, "fac_id": 1782}
{"pdb_fac_id": 654, "name": "TATA Communications - Piti Cable Landing Station", "country": "GU", "state": "GU", "city": "Piti", "zipcode": "96925", "address": "P.O. Box 22408", "latitude": 13.461645, "longitude": 144.69439, "pdb_org_id": 581, "alternatenames": [], "sources": ["pdb"], "num_ixs": 1, "fac_id": 289}
{"pdb_fac_id": 655, "name": "Scaleway Datacenter - DC2", "country": "FR", "city": "Vitry sur Seine", "zipcode": "94400", "address": "29 rue Edith Cavell", "latitude": 48.794732, "longitude": 2.411865, "pdb_org_id": 7344, "alternatenames": [], "sources": ["pdb"], "geo_id": 2967849, "num_ixs": 2, "fac_id": 290}
{"pdb_fac_id": 657, "name": "Bolshaya Morskaya 18", "country": "RU", "state": "Sankt-Peterburg", "city": "Sankt-Peterburg", "zipcode": "191186", "address": "ul. Bolshaya Morskaya, 18", "latitude": 59.934573, "longitude": 30.316618, "pdb_org_id": 1106, "alternatenames": [], "sources": ["pdb"], "geo_id": 498817, "num_ixs": 12, "fac_id": 291}
{"pdb_fac_id": 659, "name": "Gyro DC  Amsterdam", "country": "NL", "state": "NL", "city": "Amsterdam", "zipcode": "1042AZ", "address": "Gyroscoopweg 134-140", "latitude": 52.400495, "longitude": 4.842911, "pdb_org_id": 1107, "alternatenames": [], "sources": ["pdb"], "geo_id": 2759794, "num_ixs": 1, "fac_id": 292}
{"pdb_fac_id": 660, "name": "Host Networks BNE1", "country": "AU", "state": "QLD", "city": "Brisbane", "zipcode": "4113", "address": "1/53 Brandl StreetEight Mile Plains", "latitude": -27.57976, "longitude": 153.100165, "pdb_org_id": 1110, "alternatenames": [], "sources": ["pdb"], "geo_id": 2174003, "num_ixs": 2, "fac_id": 293}
{"pdb_fac_id": 663, "name": "TELEPOINT Sofia Centre", "country": "BG", "city": "Sofia", "zipcode": "1303", "address": "122 Ovcho Pole str.", "latitude": 42.702735, "longitude": 23.306259, "pdb_org_id": 4938, "alternatenames": [], "sources": ["pdb"], "geo_id": 727011, "num_ixs": 9, "fac_id": 294}
{"pdb_fac_id": 666, "name": "Sofia Data Center (SDC) 1", "country": "BG", "city": "Sofia", "zipcode": "1784", "address": "3 Grigoriy Gorbatenko Str.", "pdb_org_id": 1120, "alternatenames": [], "sources": ["pdb"], "geo_id": 727011, "num_ixs": 5, "fac_id": 295}
